ID,type,subtype,region,province,district,locality,localityType,postalCode,address,latitude,longitude,condition,constructionYear,price,pricePerMeter,bedroomCount,netHabitableSurface,floor,floorCount,hasLift,facadeCount,hasGarden,gardenSurface,hasTerrace,terraceSurface,land,kitchen,bathroomCount,showerRoomCount,toiletCount,fireplaceExists,hasSwimmingPool,hasAirConditioning,parkingCountIndoor,parkingCountOutdoor,parkingCountClosedBox,primaryEnergyConsumptionPerSqm,epcScore,hasDoubleGlazing,saleType
10616910,APARTMENT,APARTMENT,Flanders,Limburg,Hasselt,Heusden,4,3550,Korenhof 14,51.0190223,5.3074674,AS_NEW,2013.0,399000.0,3192.0,2.0,125.0,1.0,,True,,,,True,24.0,,USA_INSTALLED,1.0,0.0,1.0,False,False,False,1.0,1.0,,142.0,B,True,
10616880,APARTMENT,APARTMENT,Flanders,Antwerp,Turnhout,Mol,3,2400,Corbiestraat 98,51.1899696,5.1161747,GOOD,,218000.0,2565.0,2.0,85.0,1.0,,False,,,,True,,,INSTALLED,,0.0,1.0,False,False,,,,,92.0,A,True,
10616933,APARTMENT,APARTMENT,Flanders,West Flanders,Roeselare,Roeselare,3,8800,Meensesteenweg 30,50.9415404,3.1221493,TO_BE_DONE_UP,,95000.0,2317.0,1.0,41.0,2.0,,True,,,,,,,SEMI_EQUIPPED,,0.0,1.0,False,False,,,,,521.0,F,,
10616917,APARTMENT,APARTMENT,Flanders,West Flanders,Veurne,De Panne,4,8660,Kasteelstraat 9,51.0979245,2.5921772,,,169000.0,,1.0,,0.0,,,,,,,,,INSTALLED,,0.0,,False,,,,,,391.0,D,True,
10616913,APARTMENT,APARTMENT,Flanders,Antwerp,Antwerp,Antwerpen,2,2050,August Vermeylenlaan 3,51.2327208,4.3788345,AS_NEW,,359000.0,3264.0,3.0,110.0,7.0,,True,2.0,True,1.0,True,1.0,,HYPER_EQUIPPED,,0.0,,False,False,False,,,,140.0,B,False,
10616926,APARTMENT,APARTMENT,Wallonie,Liège,Liège,JEMEPPE,3,4101,,,,,,165000.0,2357.0,2.0,70.0,0.0,,,,True,90.0,,,,,,1.0,1.0,True,,,,,,366.0,E,,
10616911,APARTMENT,APARTMENT,Wallonie,Walloon Brabant,Nivelles,Chaumont-Gistoux,4,1325,,,,AS_NEW,2014.0,423000.0,2729.0,3.0,155.0,2.0,3.0,True,4.0,,,True,,,HYPER_EQUIPPED,1.0,2.0,2.0,False,,,4.0,8.0,,112.0,B,True,
10616934,APARTMENT,GROUND_FLOOR,Wallonie,Liège,Liège,Liège,2,4020,Rue des Récollets 32,50.6410228,5.5836017,AS_NEW,1850.0,169000.0,3130.0,1.0,54.0,0.0,2.0,False,2.0,,,,,,HYPER_EQUIPPED,1.0,1.0,1.0,False,False,,,,,109.0,B,True,
10616833,APARTMENT,APARTMENT,Wallonie,Walloon Brabant,Nivelles,Braine-l'Alleud,4,1420,Avenue Blücher 20,50.6837238,4.3987014,AS_NEW,2025.0,275000.0,4167.0,1.0,66.0,1.0,3.0,True,3.0,,,True,9.0,,USA_HYPER_EQUIPPED,1.0,0.0,1.0,False,False,,53.0,53.0,,50.0,A,True,
10616966,APARTMENT,APARTMENT,Flanders,Antwerp,Antwerp,Antwerpen,4,2170,Du Chastellei 65 A,51.2504238,4.4511647,GOOD,1975.0,185000.0,2500.0,2.0,74.0,3.0,,False,,,,,,,,1.0,0.0,1.0,False,,False,,,,238.0,C,True,
10485868,APARTMENT,APARTMENT,Wallonie,Hainaut,Mouscron,Mouscron,3,7700,,50.7361362,3.2158739,,,205186.0,2094.0,2.0,98.0,1.0,,False,,,,True,11.0,,,,0.0,,False,False,,,,,0.0,,False,
10616949,APARTMENT,APARTMENT,Flanders,East Flanders,Dendermonde,Baasrode (Dendermonde),3,9200,Baasrodestraat 115,51.0385613,4.1520277,GOOD,1998.0,199000.0,2884.0,2.0,69.0,0.0,4.0,False,3.0,,,,,,,1.0,0.0,,False,False,,,,,217.0,C,True,
10616967,APARTMENT,APARTMENT,Flanders,Antwerp,Antwerp,Antwerpen,4,2180,Frans Standaertlei 61,51.2924581,4.4384238,TO_BE_DONE_UP,1973.0,185000.0,2011.0,2.0,92.0,1.0,2.0,False,2.0,,,True,,,,9.0,0.0,1.0,False,,False,1.0,,,204.0,C,False,
10616969,APARTMENT,APARTMENT,Flanders,West Flanders,Veurne,Sint-Idesbald,4,8670,Oostendelaan 21,51.1120633,2.6134335,TO_RENOVATE,1976.0,270000.0,,2.0,,0.0,,True,,,,True,,,,1.0,0.0,,False,False,,1.0,,,436.0,E,False,
10617013,APARTMENT,APARTMENT,Flanders,East Flanders,Gent,Gent,1,9000,Brusselsesteenweg 4,51.0408152,3.7410737,,2021.0,759000.0,4545.0,2.0,167.0,4.0,4.0,True,,True,,True,20.0,,,2.0,0.0,2.0,False,False,,,,,0.0,,False,
10617020,APARTMENT,APARTMENT,Flanders,Antwerp,Mechelen,Mechelen,3,2800,,,,AS_NEW,2008.0,339000.0,3291.0,2.0,103.0,2.0,,True,,True,,True,,,,1.0,0.0,,False,False,,,,,105.0,B,False,
10617017,APARTMENT,APARTMENT,Flanders,West Flanders,Roeselare,Roeselare,3,8800,Noordstraat 57,50.9467168,3.1224203,JUST_RENOVATED,2023.0,425000.0,3542.0,2.0,120.0,2.0,,True,2.0,,,True,10.0,,INSTALLED,1.0,1.0,1.0,False,False,False,,,,83.0,A,True,
10617014,APARTMENT,APARTMENT,Flanders,East Flanders,Gent,Gent,1,9000,Brusselsesteenweg 4,51.0408152,3.7410737,,2021.0,364500.0,4673.0,1.0,78.0,4.0,4.0,True,,True,,True,27.0,,,1.0,0.0,2.0,False,False,,,,,0.0,,False,
10617025,APARTMENT,APARTMENT,Flanders,Limburg,Hasselt,Zonhoven,4,3520,Halveweg 57A,50.9927019,5.3435211,AS_NEW,1946.0,197500.0,2079.0,1.0,95.0,0.0,,False,,True,,True,34.0,,INSTALLED,1.0,0.0,1.0,False,False,,,,,350.0,D,True,
10485969,APARTMENT,PENTHOUSE,Flanders,West Flanders,Veurne,Nieuwpoort,4,8620,Oude Veurnevaart 82,51.1256378,2.7520771,,2011.0,699000.0,5178.0,2.0,135.0,2.0,4.0,True,,True,,True,,,,1.0,0.0,1.0,False,False,,,,,108.0,B,False,
10617076,APARTMENT,APARTMENT,Flanders,Antwerp,Antwerp,Boechout (Boechout),4,2530,Jan Frans Willemsstraat 10,51.1622992,4.4935645,GOOD,2016.0,480000.0,4000.0,2.0,120.0,1.0,2.0,True,2.0,,,True,21.0,,INSTALLED,1.0,0.0,,False,False,,1.0,,,71.0,A,True,
10617046,APARTMENT,PENTHOUSE,Flanders,West Flanders,Oostend,De Haan,4,8420,Kennedylaan 24,51.2628469,3.0081864,AS_NEW,,1140000.0,8507.0,3.0,134.0,3.0,,True,,,,True,,,HYPER_EQUIPPED,,0.0,2.0,False,False,,1.0,,,160.46,B,True,
10617080,APARTMENT,APARTMENT,Flanders,West Flanders,Oostend,Oostende,3,8400,"Wielingenstraat 1,0307",51.2171009,2.8845893,,2015.0,249000.0,3112.0,2.0,80.0,3.0,,True,,,,True,,,,1.0,0.0,,False,False,,,,,110.0,B,True,
10617086,APARTMENT,DUPLEX,Brussels,Brussels,Brussels,Uccle,4,1180,AVENUE CIRCULAIRE 104,50.7965395,4.3611768,,2024.0,1590000.0,7950.0,3.0,200.0,2.0,4.0,True,4.0,,,True,73.0,,USA_HYPER_EQUIPPED,2.0,0.0,2.0,True,False,,1.0,,,,,True,
10617087,APARTMENT,GROUND_FLOOR,Brussels,Brussels,Brussels,Uccle,4,1180,AVENUE CIRCULAIRE 104,50.7965395,4.3611768,,2022.0,2350000.0,7833.0,3.0,300.0,0.0,4.0,True,4.0,True,860.0,True,56.0,,USA_HYPER_EQUIPPED,2.0,0.0,4.0,True,True,,2.0,1.0,,,,True,
10617085,APARTMENT,GROUND_FLOOR,Brussels,Brussels,Brussels,Uccle,4,1180,AVENUE CIRCULAIRE 104,50.7965395,4.3611768,,2024.0,1490000.0,7602.0,3.0,196.0,0.0,4.0,True,4.0,True,40.0,True,65.0,,,2.0,0.0,3.0,True,False,,1.0,,,,,True,
10486021,APARTMENT,APARTMENT,Flanders,Antwerp,Antwerp,Antwerp,2,2018,Montebellostraat 5,51.2079266,4.4085804,,2017.0,269000.0,,1.0,,1.0,3.0,True,,,,True,,,,1.0,0.0,1.0,False,False,,,,,135.75,B,True,
10617158,APARTMENT,APARTMENT,Flanders,Antwerp,Antwerp,Merksem,4,2170,Rodeloopstraat 63,51.2515083,4.4379659,TO_RENOVATE,1981.0,195000.0,2241.0,2.0,87.0,3.0,5.0,True,2.0,,,True,6.0,,,1.0,0.0,,False,False,,1.0,,,145.0,B,True,
10355016,APARTMENT,APARTMENT,Brussels,Brussels,Brussels,Uccle,4,1180,rue Victor Gambier 21,50.8016121,4.3342572,GOOD,,330000.0,3300.0,2.0,100.0,4.0,5.0,True,2.0,,,True,9.0,,NOT_INSTALLED,1.0,0.0,1.0,False,,,,,,317.0,F,,
10617169,APARTMENT,APARTMENT,Wallonie,Liège,Liège,Hermalle-sous-Argenteau,4,4681,,50.726077,5.689852,,2008.0,335000.0,2991.0,2.0,112.0,2.0,4.0,,2.0,,,True,12.0,,INSTALLED,1.0,0.0,1.0,False,,,1.0,1.0,,105.0,B,False,
10617224,APARTMENT,APARTMENT,Wallonie,Liège,Liège,Liege,1,4000,"Avenue des Tilleuls 2,51",50.6174859,5.5736717,AS_NEW,1960.0,229000.0,2290.0,2.0,100.0,5.0,1.0,True,3.0,,,True,6.0,,INSTALLED,1.0,1.0,1.0,False,False,,,,,116.0,B,True,
10617170,APARTMENT,FLAT_STUDIO,Brussels,Brussels,Brussels,Berchem-St-Agathe,2,1082,,,,,,159000.0,3533.0,1.0,45.0,0.0,,,2.0,,,True,20.0,,INSTALLED,,1.0,1.0,False,,,,,,,,False,
10617185,APARTMENT,APARTMENT,Brussels,Brussels,Brussels,Saint-Gilles,2,1060,Avenue Jean Volders 6,50.8324581,4.3431792,TO_BE_DONE_UP,,310000.0,3263.0,2.0,95.0,1.0,6.0,False,,,,True,6.0,,SEMI_EQUIPPED,1.0,0.0,1.0,False,,,,,,306.0,F,,
10617222,APARTMENT,APARTMENT,Brussels,Brussels,Brussels,Brussels City,1,1000,Koolmijnenkaai 68,50.8567425,4.3439525,AS_NEW,,399000.0,3410.0,2.0,117.0,2.0,3.0,True,2.0,,,True,5.0,,INSTALLED,2.0,0.0,1.0,False,,,1.0,1.0,,124.0,C,True,
10617204,HOUSE,HOUSE,Flanders,Antwerp,Antwerp,Boom,4,2850,Kapelstraat 150,51.0843015,4.3858622,AS_NEW,1956.0,225000.0,1250.0,4.0,180.0,,,,2.0,,,True,,78.0,INSTALLED,1.0,0.0,,False,,,,1.0,,247.0,C,True,
10617238,APARTMENT,DUPLEX,Brussels,Brussels,Brussels,Saint-Josse-ten-Noode,4,1210,Rue du Méridien 17,50.8534125,4.368724,TO_RENOVATE,1844.0,389000.0,2173.0,2.0,179.0,2.0,3.0,False,2.0,,,,,,INSTALLED,1.0,2.0,2.0,False,,,,,,192.0,D,True,
10617239,APARTMENT,DUPLEX,Brussels,Brussels,Brussels,Saint-Josse-ten-Noode,4,1210,Rue du Méridien 17,50.8534125,4.368724,TO_RENOVATE,1844.0,349000.0,2090.0,2.0,167.0,2.0,3.0,,2.0,,,,,,,1.0,1.0,2.0,False,,,,,,181.0,D,True,
10617248,APARTMENT,DUPLEX,Flanders,Antwerp,Turnhout,Laakdal,4,2430,Meerlaarstraat 133,51.0865607,5.0717478,JUST_RENOVATED,,250000.0,1302.0,4.0,192.0,1.0,2.0,,3.0,,,True,15.0,,HYPER_EQUIPPED,1.0,0.0,,False,,,2.0,2.0,,163.0,B,True,
10617250,APARTMENT,APARTMENT,Flanders,East Flanders,Sint-Niklaas,Sint-Niklaas,3,9100,Koningin Fabiolapark 551,51.1533469,4.1582031,GOOD,,179000.0,1989.0,3.0,90.0,8.0,,True,2.0,,,True,,,,1.0,0.0,,False,,,,1.0,,194.0,B,True,
10617276,APARTMENT,APARTMENT,Flanders,Antwerp,Mechelen,Putte,4,2580,Mechelbaan 157,51.0622338,4.6630233,AS_NEW,2023.0,365500.0,4686.0,2.0,78.0,0.0,,True,4.0,,,True,18.0,,HYPER_EQUIPPED,1.0,1.0,1.0,False,,,,1.0,,,,,
10617282,APARTMENT,APARTMENT,Wallonie,Walloon Brabant,Nivelles,Nivelles,3,1400,,50.6044851,4.3171359,AS_NEW,2024.0,250000.0,3968.0,1.0,63.0,1.0,4.0,True,2.0,,,True,36.0,,HYPER_EQUIPPED,1.0,1.0,1.0,False,False,,,,,,B,True,
10617277,APARTMENT,APARTMENT,Flanders,Antwerp,Mechelen,Putte,4,2580,Mechelbaan 157,51.0622338,4.6630233,AS_NEW,2023.0,409820.0,3227.0,3.0,127.0,0.0,,True,4.0,,,True,18.0,,HYPER_EQUIPPED,1.0,1.0,1.0,False,,,,1.0,,,,,
10617274,HOUSE,HOUSE,Flanders,Antwerp,Turnhout,Vosselaar,4,2350,Heieinde 62,51.3025379,4.8830796,TO_RENOVATE,1955.0,180000.0,1216.0,3.0,148.0,,,,3.0,,,,,280.0,,1.0,0.0,1.0,False,,,,,,520.0,F,,
10617278,APARTMENT,APARTMENT,Flanders,Antwerp,Mechelen,Putte,4,2580,Mechelbaan 157,51.0622338,4.6630233,AS_NEW,2023.0,387040.0,4398.0,2.0,88.0,0.0,,True,4.0,,,True,26.0,,HYPER_EQUIPPED,1.0,1.0,1.0,False,,,,1.0,,,,,
10617311,APARTMENT,APARTMENT,Brussels,Brussels,Brussels,St-Gilles,2,1060,Rue Garibaldi 92,50.8230969,4.3419812,TO_RENOVATE,,335000.0,3681.0,2.0,91.0,0.0,3.0,,2.0,,,True,10.0,,,1.0,0.0,2.0,False,,,2.0,1.0,,278.0,F,,
10617299,APARTMENT,APARTMENT,Brussels,Brussels,Brussels,Molenbeek-Saint-Jean,2,1080,Avenue François Sebrechts 36,50.8639016,4.3072111,GOOD,2005.0,260000.0,2989.0,2.0,87.0,2.0,5.0,True,2.0,,,True,3.0,,HYPER_EQUIPPED,1.0,0.0,1.0,False,False,,,1.0,,218.0,E,,
10617330,APARTMENT,APARTMENT,Flanders,Antwerp,Antwerp,Antwerpen,4,2180,Bist 157A,51.2896335,4.4431949,GOOD,1962.0,209000.0,3317.0,2.0,63.0,2.0,2.0,False,3.0,,,True,4.0,,INSTALLED,1.0,0.0,1.0,False,False,False,,,,487.0,E,True,
10617358,APARTMENT,APARTMENT,Brussels,Brussels,Brussels,WOLUWÉ-SAINT-LAMBERT,3,1200,,,,,,510000.0,2217.0,4.0,230.0,0.0,,,,,,,,,,3.0,0.0,3.0,True,,,,,,300.0,F,,
10617394,APARTMENT,APARTMENT,Brussels,Brussels,Brussels,Uccle,4,1180,,,,,1989.0,370000.0,3814.0,2.0,97.0,2.0,3.0,,2.0,,,True,15.0,,INSTALLED,,1.0,1.0,False,,,,2.0,,,,False,
10617404,APARTMENT,APARTMENT,Wallonie,Walloon Brabant,Nivelles,Jodoigne,4,1370,,,,GOOD,1978.0,185000.0,2312.0,2.0,80.0,0.0,,True,2.0,,,,,,HYPER_EQUIPPED,1.0,0.0,1.0,False,False,,,,,207.0,C,True,
10617389,APARTMENT,APARTMENT,Flanders,Flemish Brabant,Halle-Vilvoorde,Rhode-Saint-Genese,4,1640,,,,,1920.0,265000.0,2304.0,3.0,115.0,1.0,2.0,,4.0,,,,,,INSTALLED,1.0,0.0,1.0,False,,,,,,214.0,C,True,
10617456,APARTMENT,GROUND_FLOOR,Brussels,Brussels,Brussels,Bruxelles,2,1050,Avenue Louise 214,50.8267321,4.3651241,GOOD,1936.0,825000.0,4125.0,3.0,200.0,0.0,,True,,,,,,,,3.0,0.0,,True,False,,1.0,,,,,False,
10617472,APARTMENT,APARTMENT,Wallonie,Walloon Brabant,Nivelles,Chaumont-Gistoux,4,1325,Rue De Wavre 8,50.6838711,4.6954659,AS_NEW,,230000.0,2644.0,2.0,87.0,3.0,3.0,False,4.0,,,,,,INSTALLED,,1.0,1.0,False,False,False,,2.0,,,D,True,
10617473,APARTMENT,FLAT_STUDIO,Flanders,West Flanders,Veurne,De Panne,4,8660,,,,GOOD,1978.0,249000.0,5533.0,1.0,45.0,1.0,,True,,,,True,10.0,,INSTALLED,1.0,0.0,1.0,True,,,,,,142.0,B,True,
10617475,APARTMENT,APARTMENT,Wallonie,Walloon Brabant,Nivelles,Chaumont-Gistoux,4,1325,Chaussée De Huy 245,50.6837741,4.6954877,AS_NEW,,235000.0,2765.0,2.0,85.0,3.0,3.0,False,4.0,,,,,,INSTALLED,1.0,0.0,1.0,False,False,False,2.0,,,,C,True,
10617474,APARTMENT,APARTMENT,Wallonie,Walloon Brabant,Nivelles,Chaumont-Gistoux,4,1325,Rue De Wavre 8,50.6838711,4.6954659,AS_NEW,,299000.0,2718.0,3.0,110.0,1.0,1.0,False,4.0,,,True,43.0,,INSTALLED,,1.0,1.0,False,False,False,,2.0,,,D,True,
10617477,APARTMENT,APARTMENT,Wallonie,Walloon Brabant,Nivelles,Chaumont-Gistoux,4,1325,Chaussée De Huy 245,50.6837741,4.6954877,AS_NEW,1997.0,317000.0,2348.0,3.0,135.0,0.0,,False,4.0,,,True,8.0,,INSTALLED,,2.0,2.0,False,False,False,2.0,,,,C,True,
10486442,HOUSE,VILLA,Wallonie,Hainaut,Tournai,Tournai,3,7500,,,,GOOD,1985.0,650000.0,1970.0,5.0,330.0,,,False,4.0,,,True,,3501.0,INSTALLED,3.0,0.0,,False,False,,1.0,2.0,,270.0,D,True,
10617487,APARTMENT,PENTHOUSE,Flanders,West Flanders,Ieper,Ieper,3,8900,"Burggraafstraat 1,",50.8474958,2.8897758,GOOD,,557575.0,3150.0,2.0,177.0,0.0,,False,2.0,,,,,,INSTALLED,1.0,0.0,2.0,False,False,,,,,35.0,A,False,
10617542,APARTMENT,APARTMENT,Flanders,East Flanders,Gent,Gent,1,9000,Antwerpsesteenweg 134,51.0585473,3.7440509,JUST_RENOVATED,,275000.0,2500.0,3.0,110.0,3.0,,,2.0,,,True,,,INSTALLED,1.0,0.0,1.0,True,,,1.0,,,203.0,C,True,
10617541,APARTMENT,APARTMENT,Flanders,East Flanders,Gent,SINT-AMANDSBERG,2,9040,Antwerpsesteenweg 134,51.0864654,3.8018551,JUST_RENOVATED,,275000.0,2500.0,3.0,110.0,3.0,,,,,,True,,,,,0.0,,True,,,1.0,,,203.0,C,True,
10617552,APARTMENT,APARTMENT,Wallonie,Hainaut,Tournai,Péruwelz,3,7600,Rue De Sondeville 144,50.5021653,3.5884918,JUST_RENOVATED,2022.0,292000.0,2496.0,3.0,117.0,1.0,1.0,False,2.0,,,,,,USA_HYPER_EQUIPPED,1.0,1.0,2.0,False,False,False,,1.0,,135.0,B,True,
10617553,APARTMENT,APARTMENT,Flanders,Antwerp,Antwerp,Wommelgem,4,2160,Handboogstraat 28,51.2036178,4.521482,GOOD,2021.0,238000.0,3500.0,1.0,68.0,0.0,,False,,,,True,,,,1.0,0.0,1.0,False,,False,,,,,,True,
10617556,APARTMENT,GROUND_FLOOR,Wallonie,Walloon Brabant,Nivelles,Tubize,4,1480,,,,AS_NEW,,299000.0,3322.0,2.0,90.0,0.0,4.0,,2.0,,,True,,,,2.0,0.0,,False,,,,,,123.0,B,,
10617569,APARTMENT,GROUND_FLOOR,Flanders,Limburg,Hasselt,KWAADMECHELEN,4,3945,Heidestraat 106,51.1032698,5.1547638,GOOD,2008.0,225000.0,1815.0,2.0,124.0,0.0,,,2.0,,,True,,,,1.0,0.0,,True,,,2.0,,,156.0,B,True,
10617575,APARTMENT,GROUND_FLOOR,Flanders,Limburg,Hasselt,Ham,4,3945,Zandstraat 37,51.0980839,5.1446994,,2022.0,252000.0,2681.0,2.0,94.0,0.0,2.0,True,2.0,True,160.0,True,14.0,,INSTALLED,1.0,0.0,1.0,True,,,,,,,,True,
10617574,APARTMENT,APARTMENT,Flanders,Limburg,Hasselt,Ham,4,3945,Zandstraat 37,51.0980839,5.1446994,,2022.0,252000.0,2681.0,2.0,94.0,0.0,2.0,True,2.0,True,160.0,True,14.0,,INSTALLED,1.0,0.0,1.0,True,,,,,,,,True,
10617591,APARTMENT,APARTMENT,Flanders,Flemish Brabant,Halle-Vilvoorde,Hoeilaart,4,1560,,,,GOOD,1968.0,295000.0,3207.0,2.0,92.0,3.0,3.0,True,2.0,,,,,,INSTALLED,1.0,0.0,1.0,False,False,,,,,625.0,F,True,
10617618,APARTMENT,APARTMENT,Flanders,East Flanders,Sint-Niklaas,Sint-Niklaas,3,9100,Monseigneur Stillemansstraat 2,51.1614016,4.1420486,AS_NEW,2019.0,169900.0,3398.0,1.0,50.0,1.0,1.0,True,2.0,,,True,4.0,,USA_HYPER_EQUIPPED,1.0,0.0,1.0,False,False,False,1.0,,,113.0,B,True,
10617583,APARTMENT,APARTMENT,Flanders,Antwerp,Antwerp,Antwerp,3,2600,Prins Boudewijnlaan 39,51.180632,4.4242069,GOOD,1957.0,269000.0,2152.0,3.0,125.0,2.0,3.0,True,4.0,True,,True,6.0,,SEMI_EQUIPPED,1.0,0.0,1.0,True,,,1.0,,,190.0,B,,
10617604,APARTMENT,TRIPLEX,Brussels,Brussels,Brussels,Bruxelles,1,1000,Rue Duquesnoy 38,50.8447215,4.3536525,JUST_RENOVATED,1991.0,854000.0,4270.0,4.0,200.0,4.0,4.0,True,3.0,,,True,10.0,,USA_HYPER_EQUIPPED,2.0,2.0,2.0,False,False,,,,,248.0,E,True,
10617614,APARTMENT,TRIPLEX,Flanders,Antwerp,Antwerp,Hoboken,4,2660,Hydeparkstraat 24,51.1814096,4.3492234,,1920.0,199000.0,1895.0,2.0,105.0,0.0,,,2.0,,,,,,INSTALLED,2.0,0.0,3.0,True,,,,,,319.0,D,,
10617620,APARTMENT,PENTHOUSE,Flanders,West Flanders,Roeselare,Roeselare,3,8800,Botermarkt 28,50.9439295,3.126824,AS_NEW,,1025000.0,3106.0,3.0,330.0,7.0,2.0,True,3.0,,,True,110.0,,INSTALLED,2.0,1.0,3.0,False,,,,,,121.0,B,True,
10224414,HOUSE,HOUSE,Flanders,Antwerp,Antwerp,Antwerpen,3,2100,Lakborslei 165,51.2239632,4.4542222,AS_NEW,1930.0,412000.0,1971.0,4.0,209.0,,,False,3.0,True,1.0,,,229.0,,2.0,0.0,,False,False,False,,,,292.0,C,True,
10617623,HOUSE,HOUSE,Flanders,West Flanders,Brugge,St-Andries,3,8200,Pastoriestraat 164,51.2027051,3.1770862,AS_NEW,2023.0,398000.0,2823.0,4.0,141.0,,,,3.0,,,True,,174.0,HYPER_EQUIPPED,1.0,1.0,2.0,False,,,,,,,,True,
10617639,APARTMENT,APARTMENT,Wallonie,Namur,Namur,Namur,1,5000,,,,GOOD,1973.0,185000.0,2312.0,2.0,80.0,3.0,10.0,True,3.0,,,,,,INSTALLED,1.0,0.0,1.0,True,,,,,,230.0,C,True,
10617637,APARTMENT,APARTMENT,Flanders,East Flanders,Sint-Niklaas,Sint-Niklaas,3,9100,Grote Markt 72,51.1653162,4.1398896,TO_BE_DONE_UP,1977.0,349000.0,2685.0,2.0,130.0,3.0,4.0,False,2.0,,,True,8.0,,,1.0,0.0,,False,False,,,,,155.0,B,True,
10617642,APARTMENT,APARTMENT,Flanders,Flemish Brabant,Leuven,Scherpenheuvel,4,3270,"Prins Alexanderstraat 6, 3",50.9796431,4.9697087,GOOD,2018.0,295000.0,3882.0,2.0,76.0,0.0,,,2.0,,,,,,INSTALLED,1.0,0.0,2.0,True,,,1.0,1.0,,101.0,B,True,
10617643,APARTMENT,APARTMENT,Flanders,Antwerp,Antwerp,Antwerp,2,2018,Justitiestraat 2,51.2097632,4.4076079,TO_BE_DONE_UP,1987.0,349000.0,2358.0,2.0,148.0,6.0,7.0,True,,,,,,,,1.0,0.0,,True,,,,,,118.0,B,True,
10617650,APARTMENT,APARTMENT,Brussels,Brussels,Brussels,Bruxelles,2,1050,,,,,,790000.0,3950.0,3.0,200.0,7.0,,True,2.0,,,True,8.0,,,2.0,0.0,,False,False,False,1.0,,,,,False,
10617651,APARTMENT,PENTHOUSE,Flanders,Antwerp,Mechelen,Heist-op-den-Berg,4,2220,Kloosterstraat 3,51.0758981,4.7313733,,2020.0,835000.0,3761.0,3.0,222.0,4.0,4.0,True,3.0,,,True,55.0,,INSTALLED,2.0,1.0,2.0,True,,,,,,,,,
10617644,APARTMENT,APARTMENT,Brussels,Brussels,Brussels,Schaerbeek,2,1030,Rue Herman 24,50.8646398,4.3777135,TO_BE_DONE_UP,1968.0,249000.0,3276.0,2.0,76.0,1.0,3.0,,2.0,,,True,,,SEMI_EQUIPPED,1.0,0.0,1.0,True,,,,,,219.0,E,True,
10617652,APARTMENT,PENTHOUSE,Flanders,Antwerp,Mechelen,Heist-op-den-Berg,4,2220,Kloosterstraat 3,51.0758981,4.7313733,,2020.0,1150000.0,4812.0,3.0,239.0,4.0,4.0,True,3.0,,,True,58.0,,INSTALLED,2.0,1.0,2.0,True,,,,,,,,,
10617656,APARTMENT,APARTMENT,Wallonie,Liège,Liège,Liège,1,4000,Rue de l'Université 26,50.641866,5.5736687,,,240000.0,,4.0,,4.0,4.0,,2.0,,,,,,,1.0,0.0,1.0,True,,,,,,255.0,C,,
10617653,APARTMENT,PENTHOUSE,Flanders,Antwerp,Mechelen,Heist-op-den-Berg,4,2220,Kloosterstraat 3,51.0758981,4.7313733,,2020.0,875000.0,4557.0,3.0,192.0,4.0,4.0,True,3.0,,,True,44.0,,INSTALLED,2.0,1.0,2.0,True,,,,,,,,,
10617665,APARTMENT,APARTMENT,Flanders,Flemish Brabant,Halle-Vilvoorde,Wemmel,4,1780,Is. Meyskensstraat 19,50.90317,4.31233,,2023.0,335000.0,4351.0,2.0,77.0,1.0,3.0,True,2.0,True,337.0,True,15.0,,USA_INSTALLED,1.0,0.0,1.0,True,,,1.0,,,,,True,
10617667,APARTMENT,APARTMENT,Flanders,Flemish Brabant,Halle-Vilvoorde,Wemmel,4,1780,Is. Meyskensstraat 19,50.90317,4.312,,2023.0,370000.0,4022.0,1.0,92.0,0.0,3.0,True,2.0,True,40.0,True,15.0,,USA_INSTALLED,1.0,0.0,1.0,True,,,1.0,,,,,True,
10617670,APARTMENT,APARTMENT,Flanders,Flemish Brabant,Halle-Vilvoorde,Wemmel,4,1780,Is. Meyskensstraat 19,50.90317,4.31233,,2023.0,365000.0,4345.0,1.0,84.0,1.0,3.0,True,2.0,True,40.0,True,10.0,,USA_INSTALLED,1.0,0.0,1.0,True,,,1.0,,,,,True,
10617669,APARTMENT,APARTMENT,Flanders,Flemish Brabant,Halle-Vilvoorde,Wemmel,4,1780,Is. Meyskensstraat 19,50.90317,4.31233,,2023.0,360000.0,4286.0,2.0,84.0,2.0,3.0,True,2.0,True,337.0,True,13.0,,USA_INSTALLED,1.0,0.0,1.0,True,,,1.0,,,,,True,
10617654,APARTMENT,APARTMENT,Flanders,Antwerp,Antwerp,Antwerpen,1,2000,Tabakvest 59b,51.2135453,4.4099183,,,295000.0,3933.0,2.0,75.0,2.0,1.0,False,1.0,,,,,,,1.0,0.0,,False,False,False,,,,,,False,
10617668,APARTMENT,APARTMENT,Flanders,Flemish Brabant,Halle-Vilvoorde,Wemmel,4,1780,Is. Meyskensstraat 19,50.90317,4.31233,,2023.0,355000.0,4438.0,2.0,80.0,2.0,3.0,True,2.0,True,337.0,True,13.0,,USA_INSTALLED,1.0,0.0,1.0,True,,,1.0,,,,,True,
10617666,APARTMENT,APARTMENT,Flanders,Flemish Brabant,Halle-Vilvoorde,Wemmel,4,1780,Is. Meyskensstraat 19,50.90317,4.31233,,2023.0,380000.0,4130.0,1.0,92.0,0.0,3.0,True,2.0,True,50.0,True,20.0,,USA_INSTALLED,1.0,0.0,1.0,True,,,1.0,,,,,True,
10617684,APARTMENT,APARTMENT,Wallonie,Liège,Liège,Embourg,2,4053,Voie De L'ardenne 9/23,50.596833,5.6094449,AS_NEW,,380000.0,3220.0,2.0,118.0,2.0,2.0,True,,,,True,8.0,,,1.0,1.0,1.0,False,False,False,1.0,,,,,False,
10617693,APARTMENT,APARTMENT,Brussels,Brussels,Brussels,Auderghem,4,1160,,,,GOOD,1969.0,260000.0,,1.0,,1.0,9.0,True,2.0,,,True,15.0,,SEMI_EQUIPPED,1.0,0.0,1.0,False,False,False,,,,,,True,
10617702,APARTMENT,APARTMENT,Flanders,Antwerp,Antwerp,Mortsel,4,2640,Vijf Aprilwarande 65,51.1698345,4.4420229,GOOD,1970.0,215000.0,2986.0,1.0,72.0,0.0,,,3.0,True,100.0,True,20.0,,SEMI_EQUIPPED,1.0,0.0,1.0,True,,,1.0,,,350.0,D,True,
10617716,APARTMENT,APARTMENT,Flanders,East Flanders,Sint-Niklaas,SINT-NIKLAAS,3,9100,Stanislaw Maczekpark 15,51.1526626,4.1494667,,,245000.0,3101.0,1.0,79.0,3.0,,True,,,,,,,,1.0,0.0,2.0,True,,,,,,148.0,B,True,
10486638,APARTMENT,PENTHOUSE,Flanders,West Flanders,Brugge,Knokke-Heist,3,8300,Jozef Nellenslaan 199,51.3499241,3.2830071,TO_BE_DONE_UP,1974.0,995000.0,11570.0,2.0,86.0,6.0,6.0,True,2.0,,,True,45.0,,HYPER_EQUIPPED,2.0,0.0,1.0,False,False,,,,,545.0,F,True,
10617746,APARTMENT,GROUND_FLOOR,Flanders,West Flanders,Oostend,Oudenburg,4,8460,Marktstraat 30,51.1847192,3.006267,GOOD,,209000.0,1900.0,2.0,110.0,0.0,,False,,True,,True,,,HYPER_EQUIPPED,,0.0,1.0,False,False,,,,,270.0,C,True,
10617777,APARTMENT,APARTMENT,Flanders,East Flanders,Aalst,Aalst,3,9300,,,,GOOD,1968.0,215000.0,2150.0,3.0,100.0,5.0,12.0,,4.0,,,True,10.0,,HYPER_EQUIPPED,1.0,0.0,1.0,False,,,1.0,10.0,,185.0,B,True,
10355615,APARTMENT,APARTMENT,Wallonie,Luxembourg,Bastogne,Bastogne,3,6600,"Rue de la Chapelle 8, B2",50.0038442,5.7225133,,2015.0,249000.0,3112.0,2.0,80.0,3.0,4.0,True,,,,True,,,INSTALLED,,1.0,1.0,True,,,1.0,,,109.0,B,,
10617724,APARTMENT,APARTMENT,Brussels,Brussels,Brussels,MOLENBEEK-SAINT-JEAN,2,1080,,,,,1960.0,255000.0,2684.0,2.0,95.0,0.0,2.0,,3.0,,,,,,,1.0,0.0,1.0,True,,,,,,176.0,D,,
10617736,APARTMENT,APARTMENT,Wallonie,Luxembourg,Bastogne,Bastogne,3,6600,Chaussée d'Arlon 35,49.9964423,5.7178854,,2014.0,265000.0,3272.0,2.0,81.0,1.0,3.0,True,,,,True,,,INSTALLED,,1.0,,True,,,2.0,1.0,,111.0,B,,
10617784,APARTMENT,DUPLEX,Brussels,Brussels,Brussels,Bruxelles,1,1000,Rue Bodenbroek 22,50.840798,4.3568794,AS_NEW,2001.0,995000.0,4326.0,3.0,230.0,4.0,4.0,True,,,,,,,HYPER_EQUIPPED,2.0,0.0,3.0,True,,,2.0,,,194.0,D,True,
10617800,APARTMENT,APARTMENT,Flanders,Antwerp,Antwerp,Antwerpen,2,2018,Plantin En Moretuslei 206,51.2087637,4.4347819,AS_NEW,2010.0,325000.0,3533.0,2.0,92.0,5.0,,True,,,,True,11.0,,INSTALLED,1.0,0.0,1.0,False,False,False,1.0,,,,,True,
10617786,APARTMENT,APARTMENT,Flanders,Antwerp,Antwerp,Antwerpen,1,2000,Jeruzalemstraat 13,51.2221727,4.4032361,AS_NEW,2017.0,298000.0,2980.0,1.0,100.0,3.0,3.0,False,3.0,,,True,17.0,,USA_INSTALLED,1.0,0.0,1.0,False,False,False,,,,,,True,
10617803,APARTMENT,APARTMENT,Brussels,Brussels,Brussels,Bruxelles 12,4,1120,,,,,,185000.0,2643.0,1.0,70.0,2.0,2.0,,2.0,,,True,21.0,,INSTALLED,1.0,0.0,1.0,False,,,,,,1166.0,G,True,
10617822,APARTMENT,APARTMENT,Flanders,Antwerp,Mechelen,Putte,4,2580,Heiststeenweg 24,51.0582673,4.6737123,,2010.0,279000.0,2632.0,2.0,106.0,1.0,,,2.0,,,True,,,INSTALLED,1.0,0.0,2.0,True,,,,1.0,,105.0,B,True,
10617834,HOUSE,HOUSE,Flanders,Antwerp,Mechelen,BEERZEL,4,2580,Jozef Weynsstr. 26,51.0566924,4.6694031,TO_RENOVATE,1968.0,365000.0,2808.0,2.0,130.0,,,,4.0,True,505.0,,,1050.0,SEMI_EQUIPPED,1.0,0.0,1.0,True,,,1.0,,,1085.0,F,,
10617823,APARTMENT,APARTMENT,Brussels,Brussels,Brussels,Schaerbeek,2,1030,Boulevard Lambermont 161,50.8708363,4.3817892,GOOD,1958.0,319000.0,2823.0,2.0,113.0,4.0,4.0,True,,,,True,7.0,,NOT_INSTALLED,,1.0,1.0,True,,,,,,,,True,
10617839,APARTMENT,APARTMENT,Wallonie,Liège,Waremme,Waremme,3,4300,rue des fabriques 30,50.6928241,5.2487838,GOOD,1993.0,229000.0,2793.0,2.0,82.0,5.0,,True,,,,True,4.0,,INSTALLED,1.0,0.0,,False,,,1.0,,,163.0,B,True,
10617848,APARTMENT,APARTMENT,Flanders,West Flanders,Veurne,Koksijde,4,8670,Quinten Metsysstraat 1,51.1137357,2.6175557,AS_NEW,,440000.0,5176.0,2.0,85.0,3.0,,,,,,True,3.0,,,,0.0,,False,,,,,,239.0,C,True,
10617846,APARTMENT,APARTMENT,Brussels,Brussels,Brussels,Forest,4,1190,,,,TO_RENOVATE,1960.0,215000.0,3308.0,1.0,65.0,2.0,6.0,True,2.0,,,True,3.0,,SEMI_EQUIPPED,1.0,0.0,1.0,False,,,,,,319.0,F,,
10617856,APARTMENT,APARTMENT,Flanders,Flemish Brabant,Halle-Vilvoorde,Wemmel,4,1780,Is. Meyskensstraat 19,50.90317,4.31233,,2023.0,335000.0,4351.0,2.0,77.0,1.0,3.0,True,2.0,True,337.0,True,15.0,,USA_INSTALLED,1.0,0.0,1.0,True,,,1.0,,,,,True,
10617882,APARTMENT,APARTMENT,Flanders,Antwerp,Antwerp,Antwerpen,4,2140,Dokter Van de Perrelei 116,51.206795,4.4494177,GOOD,1955.0,295000.0,4538.0,2.0,65.0,0.0,3.0,False,2.0,True,70.0,,,,,1.0,0.0,1.0,False,,False,,,,,,True,
10617885,APARTMENT,APARTMENT,Flanders,Antwerp,Antwerp,Antwerpen,4,2140,Dokter Van de Perrelei 116,51.206795,4.4494177,GOOD,1955.0,269000.0,3843.0,2.0,70.0,1.0,3.0,False,2.0,,,,,,,1.0,0.0,1.0,False,,False,,,,,,True,
10617881,APARTMENT,APARTMENT,Flanders,Antwerp,Antwerp,Antwerpen,4,2140,Dokter Van de Perrelei 116,51.206795,4.4494177,GOOD,1955.0,269000.0,3843.0,2.0,70.0,3.0,3.0,False,2.0,,,,,,,1.0,0.0,1.0,False,,False,,,,,,True,
10617888,APARTMENT,APARTMENT,Flanders,Flemish Brabant,Leuven,Rotselaar,4,3110,Vijfde Liniestraat 5,50.9503495,4.7105835,,,300000.0,,2.0,,0.0,,,,,,,,,,,0.0,,False,,,,,,,,,
10618026,APARTMENT,APARTMENT,Brussels,Brussels,Brussels,ETTERBEEK,2,1040,Avenue le Marinel 140,50.8290559,4.399365,GOOD,1951.0,440000.0,4231.0,3.0,104.0,1.0,3.0,False,2.0,,,True,4.0,,HYPER_EQUIPPED,1.0,0.0,1.0,False,False,False,1.0,,,239.0,E,True,
10617902,APARTMENT,APARTMENT,Brussels,Brussels,Brussels,Uccle,4,1180,Rue de la Mutualité 54,50.8132905,4.3451935,TO_BE_DONE_UP,,230000.0,3382.0,1.0,68.0,1.0,5.0,False,2.0,,,,,,INSTALLED,1.0,0.0,1.0,False,False,,,,,227.0,E,True,
10618044,APARTMENT,DUPLEX,Wallonie,Hainaut,Tournai,Tournai,3,7500,,,,GOOD,,129000.0,1675.0,1.0,77.0,0.0,,False,,,,,,,INSTALLED,1.0,47.0,,False,,,,,,285.0,D,,
10618031,APARTMENT,APARTMENT,Flanders,Antwerp,Turnhout,Turnhout,3,2300,Vianenstraat 13-15,51.3211705,4.9448454,AS_NEW,2010.0,279000.0,2067.0,2.0,135.0,1.0,3.0,True,3.0,,,True,13.0,,,1.0,0.0,1.0,False,,,,,,89.0,A,True,
10618042,APARTMENT,DUPLEX,Brussels,Brussels,Brussels,Uccle,4,1180,Avenue Oscar Van Goidtsnoven 101,50.8161138,4.3373981,GOOD,1933.0,460000.0,3680.0,4.0,125.0,3.0,4.0,False,2.0,,,True,2.0,,HYPER_EQUIPPED,2.0,1.0,2.0,False,False,,,,,262.0,E,True,
10618047,HOUSE,HOUSE,Wallonie,Walloon Brabant,Nivelles,Biez,4,1390,,,,TO_BE_DONE_UP,1960.0,449000.0,2088.0,3.0,215.0,,,False,3.0,True,650.0,True,50.0,866.0,SEMI_EQUIPPED,2.0,0.0,3.0,True,False,False,2.0,2.0,,,,True,
10618046,APARTMENT,APARTMENT,Flanders,East Flanders,Aalst,Geraardsbergen,3,9500,Boelarestraat 56 bu,50.7719993,3.8722917,AS_NEW,2019.0,208500.0,,2.0,,0.0,,,2.0,,,,,,,,0.0,,False,,,1.0,,,134.0,B,,
10618062,APARTMENT,APARTMENT,Flanders,East Flanders,Sint-Niklaas,Stekene,4,9190,Brugstraat 34,51.2011358,4.0340631,GOOD,2021.0,228000.0,2923.0,2.0,78.0,3.0,3.0,True,2.0,,,True,7.0,,HYPER_EQUIPPED,1.0,0.0,,False,False,,,,,64.0,A,True,
10618061,APARTMENT,APARTMENT,Flanders,Antwerp,Antwerp,Antwerpen,1,2000,Krijgslaan 161,51.1622702,4.3919486,AS_NEW,,295000.0,,2.0,,0.0,,,,,,True,,,HYPER_EQUIPPED,,0.0,,False,,,,,,70.0,A,,
10618045,APARTMENT,FLAT_STUDIO,Flanders,West Flanders,Kortrijk,Kortrijk,3,8500,Handelskaai 1F bu,50.815474,3.2718398,TO_BE_DONE_UP,1990.0,110000.0,,1.0,,0.0,,,2.0,,,,,,,,0.0,,False,,,,,,280.0,C,,
10618069,APARTMENT,APARTMENT,Brussels,Brussels,Brussels,Anderlecht,2,1070,Place Des Tulipes - Tulpenplein 13,50.8182696,4.2628718,AS_NEW,2018.0,438000.0,3876.0,3.0,113.0,2.0,,True,,,,True,12.0,,HYPER_EQUIPPED,2.0,0.0,2.0,False,False,False,1.0,,,63.0,B,True,
10618071,HOUSE,HOUSE,Wallonie,Hainaut,Mons,Baudour,4,7331,Avenue Louis Goblet 127,,,GOOD,,80000.0,1600.0,1.0,50.0,,,False,2.0,,,,,0.0,INSTALLED,1.0,0.0,1.0,False,False,,,,,265.0,D,True,
10618088,APARTMENT,APARTMENT,Flanders,Antwerp,Antwerp,Edegem,4,2650,Hovestraat 161,51.155253,4.459304,AS_NEW,1971.0,249500.0,3080.0,2.0,81.0,2.0,8.0,True,3.0,,,True,13.0,,INSTALLED,1.0,0.0,1.0,False,,,,,,128.0,B,True,
10618086,APARTMENT,DUPLEX,Flanders,Antwerp,Turnhout,Herentals,3,2200,Lierseweg 190,51.1750084,4.8193657,GOOD,1992.0,289000.0,1940.0,3.0,149.0,2.0,,,2.0,,,True,,,INSTALLED,2.0,0.0,,True,,,1.0,,,191.0,B,,
10618093,APARTMENT,APARTMENT,Flanders,Flemish Brabant,Halle-Vilvoorde,Kraainem,4,1950,,,,GOOD,1989.0,335000.0,,2.0,,1.0,4.0,True,3.0,,,True,16.0,,USA_HYPER_EQUIPPED,,1.0,1.0,False,False,False,,,,194.0,B,True,
10618100,APARTMENT,APARTMENT,Brussels,Brussels,Brussels,BRUXELLES,1,1000,,,,JUST_RENOVATED,,585000.0,4239.0,3.0,138.0,3.0,5.0,,,,,,,,,1.0,0.0,2.0,True,,,,,,188.0,D,,
10618123,APARTMENT,GROUND_FLOOR,Brussels,Brussels,Brussels,Brussel,4,1130,,,,JUST_RENOVATED,1977.0,240000.0,3117.0,1.0,77.0,0.0,2.0,False,2.0,,,True,30.0,,HYPER_EQUIPPED,1.0,0.0,1.0,True,False,False,,,,,,True,
10618094,APARTMENT,APARTMENT,Flanders,Flemish Brabant,Halle-Vilvoorde,Sint-Pieters-Leeuw,3,1600,Groot Bijgaarden Straat 68,50.7985457,4.2905198,GOOD,1981.0,285000.0,3393.0,2.0,84.0,1.0,,False,,,,True,20.0,,HYPER_EQUIPPED,1.0,0.0,1.0,False,False,,1.0,1.0,,421.0,E,True,
10618119,APARTMENT,APARTMENT,Wallonie,Namur,Namur,Jambes (Namur),3,5100,,,,,1976.0,189000.0,2739.0,1.0,69.0,4.0,7.0,,2.0,,,,,,INSTALLED,1.0,0.0,1.0,False,,,,,,237.0,C,False,
10618146,APARTMENT,DUPLEX,Flanders,Flemish Brabant,Halle-Vilvoorde,Wemmel,4,1780,,,,AS_NEW,2010.0,345000.0,3224.0,2.0,107.0,2.0,2.0,False,3.0,,,True,6.0,,,1.0,0.0,2.0,False,False,False,1.0,2.0,,152.0,B,True,
10618126,APARTMENT,APARTMENT,Flanders,Antwerp,Antwerp,Deurne,3,2100,Ruggeveldlaan 751,51.2308299,4.4785338,GOOD,1988.0,299000.0,2007.0,3.0,149.0,4.0,,True,2.0,,,True,25.0,,,1.0,0.0,,False,False,,1.0,,,125.0,B,True,
10618137,APARTMENT,APARTMENT,Flanders,West Flanders,Oostend,De Haan,4,8420,"Kapellestraat 3,2",51.2714774,3.0346032,GOOD,,385000.0,4185.0,2.0,92.0,1.0,,True,,,,True,,,INSTALLED,,0.0,1.0,False,False,,1.0,,,137.0,B,True,
10618162,APARTMENT,APARTMENT,Flanders,West Flanders,Ieper,Ieper,3,8900,Vleeshouwersstraat 32,50.8570117,2.880905,GOOD,2002.0,255000.0,3036.0,2.0,84.0,1.0,1.0,True,3.0,,,True,6.0,,INSTALLED,1.0,0.0,1.0,False,False,,,,,176.0,B,,
10618164,APARTMENT,APARTMENT,Flanders,East Flanders,Gent,Gent,1,9000,Floraliënlaan 40,51.0387977,3.7178763,AS_NEW,1973.0,366000.0,4880.0,1.0,75.0,0.0,,False,4.0,,,,,,INSTALLED,1.0,0.0,1.0,False,False,,,,,226.0,C,,
10618198,APARTMENT,APARTMENT,Wallonie,Liège,Liège,Liege 1,1,4000,,50.6389762,5.568206,,,295000.0,2138.0,3.0,138.0,8.0,9.0,,2.0,,,True,10.0,,,1.0,0.0,1.0,False,,,1.0,,,156.0,B,False,
10618191,APARTMENT,APARTMENT,Flanders,West Flanders,Brugge,Brugge,1,8000,"Sint-Maartensbilk 12,",51.2044846,3.2142754,AS_NEW,,339000.0,,3.0,,1.0,,True,,,,,,,USA_HYPER_EQUIPPED,,1.0,1.0,False,False,,,,,172.0,B,False,
10618170,APARTMENT,APARTMENT,Wallonie,Liège,Liège,Herstal,2,4040,"Esplanade de la Paix 5, 15",50.6568561,5.613858,GOOD,1981.0,149500.0,1993.0,2.0,75.0,1.0,9.0,True,2.0,,,True,12.0,,INSTALLED,,1.0,1.0,True,,,,,,207.0,C,,
10618180,APARTMENT,APARTMENT,Wallonie,Walloon Brabant,Nivelles,Nivelles,3,1400,,50.5871829,4.3116131,,1981.0,195000.0,2438.0,2.0,80.0,8.0,8.0,,2.0,,,True,6.0,,INSTALLED,1.0,0.0,1.0,False,,,1.0,,,367.0,E,False,
10618267,APARTMENT,APARTMENT,Flanders,Antwerp,Antwerp,Antwerp,1,2000,Lange Vlierstraat 14,51.2143552,4.3971227,GOOD,2003.0,568000.0,3812.0,3.0,149.0,1.0,4.0,True,,,,True,21.0,,INSTALLED,2.0,0.0,2.0,True,,,,,,128.0,B,True,
10618263,HOUSE,HOUSE,Wallonie,Walloon Brabant,Nivelles,Genappe,4,1470,,,,AS_NEW,1967.0,265000.0,2208.0,2.0,120.0,,,,2.0,,,True,,192.0,,1.0,0.0,1.0,True,,,1.0,1.0,,231.0,C,True,
10618204,APARTMENT,APARTMENT,Wallonie,Liège,Waremme,Wasseiges,4,4219,,,,,,335000.0,3722.0,2.0,90.0,0.0,,,,,,True,4.0,,,,1.0,1.0,False,True,,,,,57.0,A,,
10618211,APARTMENT,APARTMENT,Wallonie,Liège,Liège,Chênée,2,4032,Rue du Confluent 12,50.6127081,5.6137765,GOOD,,180000.0,2571.0,2.0,70.0,0.0,2.0,,2.0,True,49.0,,,,,1.0,1.0,2.0,False,,,,,,340.0,D,True,
10618275,APARTMENT,APARTMENT,Brussels,Brussels,Brussels,Ganshoren,2,1083,,,,AS_NEW,1960.0,255000.0,3148.0,2.0,81.0,2.0,2.0,,3.0,True,300.0,True,9.0,,INSTALLED,,1.0,1.0,True,,,,,,465.0,G,True,
10618291,APARTMENT,APARTMENT,Flanders,Flemish Brabant,Halle-Vilvoorde,Wemmel,4,1780,Is. Meyskensstraat 19,50.90317,4.31233,,2023.0,355000.0,3777.0,2.0,94.0,2.0,3.0,True,2.0,,,True,10.0,,USA_INSTALLED,1.0,0.0,1.0,True,,,1.0,,,,,True,
10618277,APARTMENT,APARTMENT,Flanders,Antwerp,Mechelen,Willebroek,4,2830,Dendermondsesteenweg 129,51.0594714,4.3525926,TO_RENOVATE,,280000.0,1772.0,1.0,158.0,0.0,,,,,,,,,SEMI_EQUIPPED,,0.0,,True,,,,1.0,,470.0,E,,
10618290,APARTMENT,APARTMENT,Flanders,Flemish Brabant,Halle-Vilvoorde,Wemmel,4,1780,Is. Meyskensstraat 19,50.90317,4.31233,,2023.0,335000.0,4351.0,2.0,77.0,1.0,3.0,True,2.0,True,337.0,True,15.0,,USA_INSTALLED,1.0,0.0,1.0,True,,,1.0,,,,,True,
10618276,APARTMENT,APARTMENT,Flanders,Antwerp,Mechelen,Willebroek,4,2830,Dendermondsesteenweg 129,51.0594714,4.3525926,TO_RENOVATE,,220000.0,2200.0,1.0,100.0,0.0,,,,,,,,,,1.0,0.0,1.0,True,,,,1.0,,250.0,C,,
10618292,APARTMENT,APARTMENT,Flanders,Flemish Brabant,Halle-Vilvoorde,Wemmel,4,1780,Is. Meyskensstraat 19,50.90317,4.31233,,2023.0,360000.0,3750.0,2.0,96.0,2.0,3.0,True,2.0,,,True,10.0,,USA_INSTALLED,1.0,0.0,1.0,True,,,1.0,,,,,True,
10618289,APARTMENT,APARTMENT,Flanders,West Flanders,Kortrijk,Waregem,4,8790,"Joannes Huyslaan 4,31",50.8803063,3.4403718,GOOD,2009.0,149000.0,3465.0,1.0,43.0,3.0,3.0,True,4.0,,,True,,,INSTALLED,1.0,0.0,1.0,False,False,,,1.0,,142.0,B,,
10618294,APARTMENT,APARTMENT,Flanders,Flemish Brabant,Halle-Vilvoorde,Wemmel,4,1780,Is. Meyskensstraat 19,50.90317,4.31233,,2023.0,360000.0,3750.0,2.0,96.0,2.0,3.0,True,2.0,,,True,10.0,,USA_INSTALLED,1.0,0.0,1.0,True,,,1.0,,,,,True,
10618308,HOUSE,HOUSE,Flanders,West Flanders,Ieper,Poperinge,4,8970,Ieperstraat 230,50.8549714,2.7438078,TO_RENOVATE,1930.0,148700.0,890.0,3.0,167.0,,,False,2.0,,,,,190.0,NOT_INSTALLED,,0.0,,False,False,,,1.0,,724.0,F,,
10618293,APARTMENT,APARTMENT,Flanders,Flemish Brabant,Halle-Vilvoorde,Wemmel,4,1780,Is. Meyskensstraat 19,50.90317,4.31233,,2023.0,355000.0,3698.0,2.0,96.0,2.0,3.0,True,2.0,,,True,10.0,,USA_INSTALLED,1.0,0.0,1.0,True,,,1.0,,,,,True,
10618367,APARTMENT,APARTMENT,Flanders,East Flanders,Gent,Gent,2,9040,Antwerpsesteenweg 218,51.0589452,3.7451016,GOOD,1995.0,365000.0,3476.0,2.0,105.0,5.0,6.0,True,3.0,,,True,85.0,,SEMI_EQUIPPED,1.0,0.0,1.0,True,,,,,,358.0,D,True,
10487287,HOUSE,BUNGALOW,Flanders,East Flanders,Oudenaarde,Oudenaarde,3,9700,Trompestraat 5,50.8723919,3.5981185,TO_RENOVATE,1974.0,395000.0,2842.0,3.0,139.0,,,False,2.0,,,,,1200.0,,1.0,0.0,,False,False,,1.0,,,,,True,
10618424,APARTMENT,GROUND_FLOOR,Brussels,Brussels,Brussels,Woluwe-Saint-Lambert,3,1200,Rue de Bretagne 21,50.8549191,4.4259277,GOOD,2002.0,549000.0,3866.0,3.0,142.0,0.0,5.0,True,2.0,True,60.0,True,20.0,,HYPER_EQUIPPED,2.0,1.0,2.0,False,False,,1.0,1.0,,156.0,D,True,
10618315,APARTMENT,APARTMENT,Wallonie,Hainaut,Charleroi,LA HESTRE,4,7170,Ruelle Vanhulst 2 103,50.475267,4.2390591,,,225000.0,2744.0,2.0,82.0,1.0,,True,,,,True,,,INSTALLED,,1.0,1.0,True,,,1.0,,,168.0,B,,
10618326,APARTMENT,APARTMENT,Brussels,Brussels,Brussels,Sint-Jans-Molenbeek,2,1080,,,,AS_NEW,2013.0,520000.0,,2.0,,6.0,7.0,True,,,,True,14.0,,HYPER_EQUIPPED,1.0,0.0,1.0,False,False,False,,1.0,,79.0,B,True,
10618423,APARTMENT,APARTMENT,Flanders,Antwerp,Turnhout,Turnhout,3,2300,Otterstraat 53,51.3221944,4.9525023,GOOD,1992.0,225000.0,1758.0,3.0,128.0,3.0,,True,,,,True,,,,1.0,0.0,,False,,,1.0,,,360.0,D,True,
10618431,APARTMENT,APARTMENT,Flanders,Antwerp,Antwerp,Antwerpen,2,2018,Brialmontlei 42,51.209478,4.4211495,,,325000.0,2708.0,2.0,120.0,3.0,3.0,False,,,,True,7.0,,,1.0,0.0,1.0,False,False,False,,,,,,True,
10618435,APARTMENT,APARTMENT,Wallonie,Hainaut,Ath,Ath,3,7800,Place Des Capucins 2/5,50.6324369,3.7791825,GOOD,,175000.0,1882.0,2.0,93.0,1.0,,,,,,,,,INSTALLED,1.0,0.0,1.0,True,,,,,,207.0,C,True,
10618458,APARTMENT,APARTMENT,Flanders,Antwerp,Antwerp,Antwerpen,4,2610,Rooiboslaan 171,51.1768611,4.3825797,,,224500.0,,2.0,,17.0,1.0,True,2.0,,,True,12.0,,SEMI_EQUIPPED,1.0,0.0,1.0,False,False,False,,,,167.0,B,True,
10618527,APARTMENT,APARTMENT,Flanders,Antwerp,Antwerp,Antwerpen,4,2610,Gemzenstraat 14,51.1748207,4.4231952,GOOD,1967.0,269000.0,2832.0,3.0,95.0,2.0,2.0,False,2.0,,,True,4.0,,INSTALLED,1.0,0.0,1.0,False,False,False,,,,,,True,
10487393,HOUSE,COUNTRY_COTTAGE,Flanders,East Flanders,Oudenaarde,Ronse,3,9600,Pontstraat 176,50.7345776,3.5790446,TO_RENOVATE,1900.0,395000.0,2687.0,3.0,147.0,,,,4.0,True,,True,,3535.0,INSTALLED,1.0,0.0,1.0,True,,,2.0,,,831.0,F,True,
10356397,HOUSE,CASTLE,Wallonie,Namur,Philippeville,Philippeville,3,5600,,,,AS_NEW,,850000.0,2329.0,6.0,365.0,,,,4.0,,,True,,7587.0,INSTALLED,3.0,3.0,4.0,False,True,,,10.0,,504.0,F,True,
10618544,APARTMENT,APARTMENT,Flanders,Flemish Brabant,Halle-Vilvoorde,Merchtem,4,1785,Stoofstraat 18,50.9569422,4.2333111,AS_NEW,2015.0,244900.0,4222.0,1.0,58.0,1.0,1.0,True,,,,True,6.0,,INSTALLED,1.0,0.0,,False,False,False,,,,91.0,A,True,
10618541,HOUSE,MIXED_USE_BUILDING,Brussels,Brussels,Brussels,St-Gilles,2,1060,,,,GOOD,,790000.0,2257.0,5.0,350.0,,,,2.0,,,,,130.0,USA_INSTALLED,3.0,0.0,,False,,,,,,584.0,G,True,
10618555,APARTMENT,APARTMENT,Wallonie,Hainaut,Charleroi,Charleroi,1,6000,Rue de la Neuville 66,50.4150936,4.4549945,,,145000.0,1368.0,3.0,106.0,0.0,,True,,,,True,,,NOT_INSTALLED,1.0,0.0,1.0,True,,,,,,,,,
10618546,APARTMENT,APARTMENT,Brussels,Brussels,Brussels,Ixelles,2,1050,Rue du Nid 6,50.8265705,4.3743726,AS_NEW,2018.0,695000.0,4728.0,3.0,147.0,2.0,6.0,True,2.0,,,True,6.0,,USA_HYPER_EQUIPPED,2.0,2.0,2.0,False,False,,,1.0,,64.0,B,True,
10618545,APARTMENT,APARTMENT,Flanders,West Flanders,Oostend,Oostende,3,8400,,,,GOOD,1973.0,190000.0,3167.0,1.0,60.0,5.0,,True,,,,,,,NOT_INSTALLED,1.0,0.0,1.0,True,,,,,,224.0,C,True,
10618556,APARTMENT,APARTMENT,Wallonie,Hainaut,Charleroi,Fleurus,4,6220,"Rue du Collège 2, 2",50.4834612,4.5507877,GOOD,,135000.0,1174.0,2.0,115.0,1.0,1.0,,,,,,,,SEMI_EQUIPPED,1.0,0.0,1.0,True,,,,,,451.0,F,True,
10618572,APARTMENT,APARTMENT,Flanders,Antwerp,Antwerp,Mortsel,4,2640,Mechelsesteenweg 111,51.1663271,4.4539602,GOOD,1979.0,319000.0,2848.0,3.0,112.0,4.0,5.0,True,2.0,,,True,,,INSTALLED,11.0,0.0,,True,,,1.0,,,116.0,B,,
10618558,APARTMENT,FLAT_STUDIO,Brussels,Brussels,Brussels,Ixelles,2,1050,,,,,,125000.0,4167.0,1.0,30.0,0.0,3.0,,,,,,,,,1.0,0.0,,True,,,,,,544.0,G,True,
10356427,HOUSE,MIXED_USE_BUILDING,Brussels,Brussels,Brussels,Bruxelles,2,1020,,,,GOOD,,359000.0,1994.0,2.0,180.0,,,,2.0,,,,,0.0,,1.0,0.0,,False,,,,,,,,,
10618579,APARTMENT,APARTMENT,Flanders,Antwerp,Antwerp,Deurne,3,2100,Bisschoppenhoflaan 306,51.2327075,4.4595387,AS_NEW,1967.0,135000.0,2328.0,1.0,58.0,0.0,5.0,True,3.0,,,True,4.0,,SEMI_EQUIPPED,1.0,0.0,1.0,True,,,,,,169.0,B,True,
10618577,APARTMENT,APARTMENT,Flanders,Antwerp,Antwerp,Wijnegem,4,2110,Eikenlaan 36,51.2256413,4.5227384,GOOD,1961.0,219000.0,3085.0,2.0,71.0,2.0,2.0,,2.0,,,True,2.0,,INSTALLED,1.0,0.0,1.0,True,,,,,,244.0,C,,
10618598,APARTMENT,APARTMENT,Flanders,Limburg,Hasselt,Hasselt,3,3500,"Leopoldplein 6,",50.9273013,5.3356315,,1966.0,305000.0,2440.0,3.0,125.0,0.0,,True,2.0,,,,,,INSTALLED,1.0,0.0,1.0,False,False,,1.0,,,254.0,C,True,
10618627,APARTMENT,APARTMENT,Flanders,West Flanders,Brugge,Aartrijke,4,8211,"Steenstraat 4,0.01",51.1152183,3.0848619,,2010.0,275000.0,2750.0,2.0,100.0,0.0,,False,2.0,,,True,44.0,,INSTALLED,1.0,0.0,2.0,False,False,,1.0,,,180.0,B,True,
10618584,APARTMENT,APARTMENT,Flanders,Antwerp,Antwerp,Berchem,3,2600,Lodewijk Gerritslaan 40,51.1877332,4.4193601,TO_BE_DONE_UP,1959.0,315000.0,2788.0,2.0,113.0,0.0,1.0,False,2.0,True,115.0,,,,INSTALLED,1.0,0.0,,True,False,False,,,,274.0,C,True,
10618586,APARTMENT,APARTMENT,Flanders,Antwerp,Antwerp,Antwerpen,3,2600,Fruithoflaan 102,51.1843942,4.4384461,,,200000.0,2353.0,2.0,85.0,10.0,,True,1.0,,,True,16.0,,,1.0,0.0,,False,False,False,,,,,,False,
10618643,APARTMENT,APARTMENT,Flanders,West Flanders,Roeselare,Staden,4,8840,"Dorpsstraat 38,",50.9299502,3.0115302,GOOD,2022.0,201000.0,2233.0,2.0,90.0,0.0,,False,2.0,,,,,,,1.0,0.0,1.0,False,False,,,,,0.0,,True,
10618648,APARTMENT,APARTMENT,Flanders,East Flanders,Dendermonde,Berlare,4,9290,Emiel Hertecantlaan 50,51.0153222,4.00534,GOOD,1950.0,249000.0,2075.0,2.0,120.0,1.0,,False,,,,True,,,,1.0,0.0,2.0,False,,False,,,,235.0,C,True,
10618665,APARTMENT,APARTMENT,Flanders,East Flanders,Sint-Niklaas,Sint-Niklaas,3,9100,Koningin Fabiolapark 92,51.1547644,4.1571084,AS_NEW,1969.0,220000.0,1947.0,2.0,113.0,15.0,16.0,True,2.0,,,True,11.0,,INSTALLED,1.0,0.0,1.0,False,False,False,1.0,,,265.0,C,True,
10618673,APARTMENT,APARTMENT,Flanders,West Flanders,Brugge,Brugge,1,8000,Jan Miraelstraat 15,51.2130116,3.2226508,AS_NEW,,245000.0,3062.0,2.0,80.0,2.0,,False,2.0,,,,,,INSTALLED,1.0,0.0,1.0,False,False,False,,,,171.0,B,True,
10618653,APARTMENT,APARTMENT,Flanders,Antwerp,Antwerp,Antwerp,4,2140,Turnhoutsebaan 455,51.2196618,4.4531797,TO_BE_DONE_UP,1970.0,185000.0,2312.0,2.0,80.0,9.0,17.0,True,2.0,,,True,13.0,,INSTALLED,1.0,0.0,1.0,True,,,,,,167.0,B,True,
10618644,APARTMENT,APARTMENT,Flanders,West Flanders,Roeselare,Staden,4,8840,"Dorpsstraat 40,",50.9300195,3.0115279,GOOD,2022.0,195000.0,2167.0,2.0,90.0,0.0,,False,2.0,,,,,,,1.0,0.0,1.0,False,False,,,,,0.0,,True,
10618681,APARTMENT,APARTMENT,Flanders,Antwerp,Antwerp,Edegem,4,2650,Pieter van den Bemdenlaan 114,51.1609051,4.4178896,JUST_RENOVATED,1968.0,299000.0,3646.0,2.0,82.0,1.0,,,,,,True,6.0,,INSTALLED,1.0,0.0,1.0,True,,,,,,253.0,C,True,
10618699,APARTMENT,APARTMENT,Brussels,Brussels,Brussels,Evere,4,1140,Rue de Genève 4,50.8659475,4.4029827,AS_NEW,2016.0,275000.0,4435.0,1.0,62.0,4.0,11.0,True,3.0,,,True,5.0,,INSTALLED,1.0,0.0,1.0,False,,,1.0,,,91.0,B,True,
10618674,APARTMENT,APARTMENT,Flanders,Antwerp,Mechelen,BLAASVELD,4,2830,,,,AS_NEW,1997.0,258000.0,2899.0,2.0,89.0,0.0,,,,,,True,,,INSTALLED,1.0,0.0,1.0,True,,,1.0,,,236.0,C,True,
10618694,APARTMENT,APARTMENT,Flanders,East Flanders,Gent,Gent,1,9000,Jakob Heremansstraat 4 bus,51.0410877,3.7113752,AS_NEW,,362900.0,,2.0,,0.0,,,2.0,,,True,,,,,0.0,,False,,,,,,330.0,D,,
10618720,APARTMENT,APARTMENT,Brussels,Brussels,Brussels,Etterbeek,2,1040,,,,TO_BE_DONE_UP,1939.0,350000.0,3889.0,1.0,90.0,2.0,8.0,,,,,,,,SEMI_EQUIPPED,,1.0,,True,,,,,,187.0,D,,
10618725,APARTMENT,APARTMENT,Brussels,Brussels,Brussels,Etterbeek,2,1040,,,,,1978.0,295000.0,3105.0,2.0,95.0,2.0,5.0,True,,,,True,8.0,,,1.0,0.0,,True,,,1.0,,,,,,
10618728,HOUSE,HOUSE,Brussels,Brussels,Brussels,BRUXELLES,1,1000,,,,,2012.0,375000.0,4688.0,1.0,80.0,,,,4.0,True,15.0,True,10.0,0.0,USA_HYPER_EQUIPPED,1.0,0.0,1.0,True,,,1.0,,,200.0,D,,
10618727,HOUSE,APARTMENT_BLOCK,Brussels,Brussels,Brussels,BRUXELLES,1,1000,,,,,2012.0,2750000.0,3895.0,13.0,706.0,,,,2.0,True,,True,75.0,421.0,HYPER_EQUIPPED,8.0,1.0,,True,,,8.0,,,211.0,E,,
10618750,APARTMENT,APARTMENT,Flanders,West Flanders,Roeselare,Roeselare,3,8800,Landbouwstraat 22,50.950041,3.1279781,AS_NEW,2022.0,225000.0,2273.0,2.0,99.0,0.0,,True,2.0,True,68.0,True,15.0,,INSTALLED,1.0,0.0,1.0,False,False,,,1.0,,,,,
10618730,APARTMENT,APARTMENT,Brussels,Brussels,Brussels,Ganshoren,2,1083,,,,TO_BE_DONE_UP,1959.0,159000.0,2446.0,1.0,65.0,3.0,3.0,,,,,,,,SEMI_EQUIPPED,,1.0,,True,,,,,,908.0,G,,
10618751,APARTMENT,APARTMENT,Flanders,West Flanders,Roeselare,Roeselare,3,8800,Landbouwstraat 22,50.950041,3.1279781,AS_NEW,2022.0,240000.0,2424.0,2.0,99.0,0.0,,True,2.0,True,68.0,True,15.0,,INSTALLED,1.0,0.0,1.0,False,False,,,1.0,,,,,
10618754,APARTMENT,APARTMENT,Brussels,Brussels,Brussels,Anderlecht,2,1070,,,,AS_NEW,2021.0,399000.0,3069.0,3.0,130.0,4.0,,True,,,,True,,,INSTALLED,2.0,1.0,2.0,False,,,,,,37.0,A,True,
10618759,APARTMENT,APARTMENT,Flanders,Limburg,Hasselt,ORDINGEN,3,3800,Luikersteenweg 30,50.8119718,5.1902989,,2022.0,239000.0,3855.0,1.0,62.0,0.0,3.0,True,2.0,,,True,16.0,,INSTALLED,1.0,0.0,1.0,True,,,,,,,,,
10618757,APARTMENT,APARTMENT,Flanders,Limburg,Hasselt,SINT-TRUIDEN,3,3800,Luikersteenweg 30,50.8119718,5.1902989,,2022.0,237000.0,3885.0,1.0,61.0,0.0,3.0,True,2.0,,,True,12.0,,INSTALLED,1.0,0.0,1.0,True,,,,,,,,,
10618758,APARTMENT,APARTMENT,Flanders,Limburg,Hasselt,SINT-TRUIDEN,3,3800,Luikersteenweg 30,50.8119718,5.1902989,,2022.0,235000.0,3983.0,1.0,59.0,0.0,,True,2.0,,,True,11.0,,INSTALLED,1.0,0.0,1.0,True,,,,,,,,,
10618762,APARTMENT,APARTMENT,Flanders,West Flanders,Brugge,Blankenberge,4,8370,Zeedijk 180,51.3176302,3.1347972,AS_NEW,1983.0,170000.0,,1.0,,6.0,,True,1.0,,,True,1.0,,,1.0,0.0,,False,False,False,,,,328.0,D,True,
10618769,APARTMENT,APARTMENT,Brussels,Brussels,Brussels,Forest,4,1190,,,,,1960.0,300000.0,2857.0,2.0,105.0,4.0,10.0,True,2.0,,,True,5.0,,SEMI_EQUIPPED,,1.0,1.0,True,,,1.0,,,217.0,E,True,
10618763,HOUSE,HOUSE,Wallonie,Luxembourg,Bastogne,Vielsalm,4,6690,Rue Fosse-Roulette 18,50.2770776,5.9107329,JUST_RENOVATED,1930.0,299000.0,949.0,4.0,315.0,,,False,3.0,True,25.0,True,20.0,0.0,INSTALLED,1.0,0.0,2.0,False,False,False,,,,153.0,B,True,
10618779,APARTMENT,APARTMENT,Flanders,Antwerp,Antwerp,Kapellen,4,2950,Peedreef 70,51.306407,4.421112,GOOD,1970.0,215000.0,2756.0,2.0,78.0,2.0,,False,3.0,,,,,,INSTALLED,1.0,0.0,1.0,False,False,False,,,,276.0,C,True,
10618782,APARTMENT,APARTMENT,Flanders,Antwerp,Antwerp,Antwerpen,2,2018,Belgiëlei 129a,51.2047969,4.4171419,AS_NEW,2010.0,224000.0,4073.0,1.0,55.0,1.0,8.0,True,2.0,,,,,,HYPER_EQUIPPED,1.0,0.0,1.0,False,False,False,,,,158.0,B,True,
10618795,APARTMENT,GROUND_FLOOR,Flanders,East Flanders,Gent,Evergem,4,9940,Korianderstraat 39,51.1213016,3.7208777,,2023.0,281570.0,3200.0,2.0,88.0,0.0,2.0,True,4.0,True,106.0,True,10.0,,INSTALLED,1.0,0.0,1.0,True,,,1.0,,,,,,
10618797,APARTMENT,APARTMENT,Flanders,East Flanders,Gent,Evergem,4,9940,Korianderstraat 39,51.1213016,3.7208777,,2023.0,298820.0,3248.0,2.0,92.0,1.0,2.0,True,4.0,True,,True,26.0,,INSTALLED,1.0,0.0,1.0,True,,,1.0,,,,,,
10618794,APARTMENT,GROUND_FLOOR,Flanders,East Flanders,Gent,Evergem,4,9940,Korianderstraat 39,51.1213016,3.7208777,,2023.0,326111.0,3197.0,2.0,102.0,0.0,2.0,True,4.0,True,117.0,True,10.0,,INSTALLED,1.0,0.0,1.0,True,,,2.0,,,,,,
10618793,APARTMENT,APARTMENT,Flanders,East Flanders,Gent,Lochristi,2,9080,"Antwerpse Steenweg 8, 1",51.0936126,3.8219937,,2007.0,315000.0,3150.0,2.0,100.0,0.0,,True,3.0,,,,,,INSTALLED,1.0,1.0,1.0,True,,,1.0,,,189.0,B,True,
10618823,APARTMENT,APARTMENT,Flanders,West Flanders,Veurne,De Panne,4,8660,"Visserslaan 2,0602",51.1000836,2.5892636,JUST_RENOVATED,1991.0,189000.0,4725.0,1.0,40.0,6.0,8.0,True,,,,True,,,INSTALLED,1.0,0.0,,False,False,,,,,120.0,B,True,
10618836,APARTMENT,APARTMENT,Brussels,Brussels,Brussels,Brussels,1,1000,Rue Du Cirque - Circusstraat 15,50.8532789,4.3525758,GOOD,,365000.0,3650.0,1.0,100.0,1.0,2.0,False,1.0,,,,,,,1.0,0.0,1.0,False,False,False,,,,,,False,
10618853,HOUSE,HOUSE,Flanders,Flemish Brabant,Halle-Vilvoorde,Londerzeel,4,1840,Sint Jozefstraat 52,51.0292535,4.2961794,GOOD,,379000.0,1528.0,5.0,248.0,,,False,,,,True,14.0,313.0,,1.0,0.0,1.0,False,False,,2.0,,,310.0,D,True,
10618834,APARTMENT,APARTMENT,Brussels,Brussels,Brussels,Woluwe-Saint-Lambert,3,1200,,,,AS_NEW,2007.0,350000.0,3271.0,2.0,107.0,3.0,5.0,True,,,,True,7.0,,USA_HYPER_EQUIPPED,1.0,0.0,,False,False,False,1.0,,,195.0,D,True,
10618860,APARTMENT,DUPLEX,Flanders,Flemish Brabant,Leuven,Wezemaal,4,3111,Max Havelaarplein 9,50.9485919,4.7505542,AS_NEW,2014.0,369000.0,3926.0,3.0,94.0,0.0,2.0,False,1.0,,,True,5.0,,INSTALLED,1.0,1.0,1.0,False,False,False,1.0,1.0,,165.0,B,True,
10618846,APARTMENT,GROUND_FLOOR,Flanders,Antwerp,Antwerp,Mortsel,4,2640,,,,GOOD,,195000.0,,1.0,,0.0,3.0,False,2.0,,,,,,INSTALLED,1.0,0.0,1.0,False,False,,,,,271.0,C,True,
10487778,HOUSE,HOUSE,Flanders,East Flanders,Sint-Niklaas,BEVEREN,4,9120,Kasteeldreef 144,51.2204498,4.2541681,TO_RENOVATE,1949.0,206000.0,1471.0,3.0,140.0,,,,3.0,True,,,,106.0,SEMI_EQUIPPED,1.0,0.0,1.0,True,,,,,,459.0,E,True,
10618871,APARTMENT,APARTMENT,Brussels,Brussels,Brussels,Koekelberg,2,1081,Rue Jean Jacquet 4,50.8583015,4.3296405,TO_BE_DONE_UP,1937.0,155000.0,,1.0,,1.0,4.0,,,,,,,,SEMI_EQUIPPED,1.0,0.0,1.0,False,,,,,,,,,
10618862,APARTMENT,APARTMENT,Flanders,West Flanders,Kortrijk,Anzegem,4,8570,Kerkstraat 8,50.8330349,3.4785392,,2023.0,265000.0,,2.0,,0.0,,True,,,,,,,,1.0,0.0,1.0,False,False,,,,,,,False,
10618883,APARTMENT,APARTMENT,Flanders,West Flanders,Brugge,Beernem,4,8730,Parkstraat 72,51.1378643,3.3284611,,,274000.0,3558.0,1.0,77.0,1.0,2.0,True,,True,,True,25.0,,,1.0,0.0,1.0,False,False,,,,,87.0,A,True,
10618877,APARTMENT,APARTMENT,Flanders,East Flanders,Aalst,Aalst,3,9300,August Marcelstraat 26,50.9313897,4.0345616,AS_NEW,2008.0,272500.0,,2.0,,1.0,,False,,,,True,12.0,,,1.0,0.0,,False,False,,,,,98.0,A,True,
10618887,APARTMENT,APARTMENT,Flanders,West Flanders,Kortrijk,Kortrijk,3,8500,Gasstraat 6,50.8315817,3.2564876,GOOD,1952.0,135000.0,1421.0,2.0,95.0,0.0,,False,,,,,,,,,0.0,,False,False,,,,,248.0,C,True,
10618901,APARTMENT,APARTMENT,Flanders,Antwerp,Turnhout,Mol,3,2400,"Corbiestraat 6,2",51.1860188,5.1176873,GOOD,,525000.0,,6.0,,1.0,,True,,,,True,,,INSTALLED,,0.0,2.0,False,False,,,,,,,True,
10618889,APARTMENT,APARTMENT,Flanders,East Flanders,Aalst,Aalst,3,9300,"Volksverheffingstraat 1,B",50.9395078,4.0214055,AS_NEW,1995.0,219000.0,2433.0,2.0,90.0,0.0,,False,,True,,,,,,,0.0,1.0,False,False,,3.0,,,425.0,E,False,
10618918,APARTMENT,DUPLEX,Flanders,East Flanders,Sint-Niklaas,Beveren,4,9120,Glazenleeuwstraat 81,51.2186291,4.2468888,,2018.0,299000.0,3051.0,2.0,98.0,2.0,2.0,True,,,,True,18.0,,INSTALLED,1.0,0.0,2.0,False,False,,,,,122.0,B,True,
10618913,APARTMENT,APARTMENT,Wallonie,Hainaut,Ath,Ellezelles,4,7890,Ruelle de  Ecoles 25,50.7352711,3.6819951,,,314000.0,3140.0,2.0,100.0,2.0,3.0,True,4.0,True,3000.0,True,12.0,,,1.0,0.0,1.0,False,False,,,1.0,,,,True,
10618934,APARTMENT,APARTMENT,Flanders,Antwerp,Antwerp,Berchem,3,2600,Fruithoflaan 87,51.1832461,4.4399303,AS_NEW,1972.0,299000.0,2556.0,3.0,117.0,9.0,13.0,True,,,,True,18.0,,,2.0,0.0,1.0,False,False,,,,,304.0,D,True,
10618914,APARTMENT,APARTMENT,Wallonie,Hainaut,Ath,Ellezelles,4,7890,Ruelle de  Ecoles 25,50.7352711,3.6819951,,,328000.0,3037.0,2.0,108.0,0.0,3.0,True,4.0,True,3000.0,True,,,,1.0,0.0,2.0,False,False,,,1.0,,,,True,
10618912,APARTMENT,APARTMENT,Wallonie,Hainaut,Ath,Ellezelles,4,7890,Ruelle de  Ecoles 25,50.7352711,3.6819951,,,289000.0,3360.0,1.0,86.0,2.0,3.0,True,4.0,True,3000.0,,,,,1.0,0.0,1.0,False,False,,,1.0,,,,True,
10618935,APARTMENT,APARTMENT,Flanders,East Flanders,Gent,Gent,1,9000,Dendermondsesteenweg 100,51.0547987,3.7429331,TO_BE_DONE_UP,,285000.0,2615.0,3.0,109.0,3.0,3.0,False,,,,True,10.0,,,1.0,0.0,1.0,False,False,,,,,185.0,B,True,
10618938,APARTMENT,APARTMENT,Flanders,East Flanders,Sint-Niklaas,Sint-Niklaas,3,9100,"Kleine Peperstraat 4,3",51.1638549,4.1447973,TO_BE_DONE_UP,1963.0,169000.0,1965.0,2.0,86.0,3.0,,False,,,,,,,,,0.0,,False,False,,,,,380.0,D,True,
10618944,APARTMENT,APARTMENT,Flanders,East Flanders,Aalst,Denderleeuw,4,9470,Gealieerdenstraat 98,50.884608,4.0749756,AS_NEW,1974.0,209000.0,2322.0,2.0,90.0,0.0,,False,,True,,True,,,INSTALLED,1.0,0.0,2.0,False,False,,,,,170.0,B,True,
10618954,APARTMENT,APARTMENT,Flanders,Antwerp,Antwerp,Antwerp,1,2000,Italiëlei 207B,51.2217165,4.4167893,,1964.0,288000.0,2880.0,3.0,100.0,1.0,,True,,,,,,,,1.0,0.0,,False,False,,,,,166.0,B,True,
10618976,APARTMENT,APARTMENT,Flanders,East Flanders,Gent,Gent,1,9000,Sint-Amandstraat 25,51.0430607,3.7250632,,,670777.0,5833.0,2.0,115.0,4.0,,True,,,,True,8.0,,,1.0,0.0,,False,False,,1.0,,,,,True,
10618967,APARTMENT,FLAT_STUDIO,Flanders,West Flanders,Brugge,Knokke,3,8300,Duinbergenlaan 125,51.3444503,3.2583075,AS_NEW,1970.0,345000.0,10781.0,1.0,32.0,3.0,10.0,True,,,,True,,,,1.0,0.0,,False,False,,,,,221.0,C,False,
10618966,APARTMENT,APARTMENT,Flanders,West Flanders,Brugge,Knokke,3,8300,Elizabetlaan 239,51.3448074,3.2684429,JUST_RENOVATED,,495000.0,8839.0,2.0,56.0,1.0,3.0,True,,,,True,,,,1.0,0.0,,False,False,,,,,188.0,B,False,
10618977,APARTMENT,APARTMENT,Flanders,East Flanders,Gent,Gent,1,9000,Sint-Amandstraat 25,51.0430607,3.7250632,,,529629.0,6231.0,2.0,85.0,3.0,,True,,,,True,6.0,,INSTALLED,1.0,0.0,,False,False,,1.0,,,,,True,
10619000,APARTMENT,APARTMENT,Flanders,Flemish Brabant,Leuven,Heverlee,1,3001,Verbindingslaan -,50.8606205,4.7017587,,2020.0,365000.0,4148.0,1.0,88.0,0.0,3.0,True,,True,,True,29.0,,USA_HYPER_EQUIPPED,1.0,0.0,1.0,False,False,,1.0,,,75.0,A,True,
10619005,APARTMENT,APARTMENT,Flanders,Antwerp,Turnhout,Turnhout,3,2300,"Rode Ridderhof 8, 10",51.3377191,4.9344756,,2023.0,346800.0,3272.0,2.0,106.0,4.0,,True,,,,True,9.0,,INSTALLED,1.0,0.0,1.0,True,,,,,,,,True,
10619004,APARTMENT,APARTMENT,Flanders,Antwerp,Turnhout,Turnhout,3,2300,Jommekestraat 20,51.3377191,4.9344756,,2022.0,305453.0,3511.0,2.0,87.0,4.0,,,2.0,,,True,12.0,,INSTALLED,1.0,0.0,1.0,True,,,,,,,,True,
10619007,APARTMENT,GROUND_FLOOR,Flanders,Antwerp,Turnhout,Turnhout,3,2300,Lucky Lukepad 12,51.3377191,4.9344756,,2022.0,199932.0,2898.0,1.0,69.0,0.0,,,2.0,,,True,5.0,,INSTALLED,1.0,0.0,1.0,True,,,,,,,,True,
10487929,HOUSE,HOUSE,Flanders,Flemish Brabant,Leuven,Tienen,3,3300,Sint-Truidensesteenweg 250,50.7998581,4.968112,TO_RENOVATE,,179000.0,937.0,4.0,191.0,,,False,2.0,True,848.0,,,848.0,,3.0,0.0,,False,False,,,,,442.0,E,True,
10619008,APARTMENT,APARTMENT,Flanders,Antwerp,Turnhout,Turnhout,3,2300,Lucky Lukepad 12,51.3377191,4.9344756,,2022.0,202095.0,2929.0,1.0,69.0,1.0,,,2.0,,,True,5.0,,INSTALLED,1.0,0.0,1.0,True,,,,,,,,True,
10619017,APARTMENT,APARTMENT,Flanders,Antwerp,Turnhout,Turnhout,3,2300,Rode Ridderhof 10,51.3377191,4.9344756,,2023.0,465528.0,3448.0,3.0,135.0,2.0,,True,2.0,,,True,28.0,,INSTALLED,2.0,0.0,1.0,True,,,,,,,,True,
10619018,APARTMENT,APARTMENT,Flanders,Antwerp,Turnhout,Turnhout,3,2300,Rode Ridderhof 10,51.3377191,4.9344756,,2023.0,568140.0,3443.0,3.0,165.0,3.0,,True,2.0,,,True,36.0,,INSTALLED,2.0,0.0,2.0,True,,,,,,,,True,
10619023,APARTMENT,APARTMENT,Flanders,West Flanders,Diksmuide,Kortemark,4,8610,"Zarrenplein 1,B",51.0180865,2.958384,TO_BE_DONE_UP,,130000.0,,2.0,,0.0,,False,,,,,,,,,0.0,,False,False,,,,,272.0,C,False,
10619036,APARTMENT,PENTHOUSE,Flanders,Antwerp,Turnhout,Turnhout,3,2300,,,,GOOD,2005.0,299000.0,2091.0,3.0,143.0,4.0,,True,,,,True,12.0,,INSTALLED,1.0,1.0,2.0,False,False,,,1.0,,165.0,B,True,
10619009,APARTMENT,APARTMENT,Flanders,Antwerp,Turnhout,Turnhout,3,2300,"Robbedoespad 3, 15",51.3377191,4.9344756,,2022.0,251957.0,3149.0,2.0,80.0,3.0,,,2.0,,,True,9.0,,INSTALLED,1.0,0.0,1.0,True,,,,,,,,True,
10619104,APARTMENT,APARTMENT,Flanders,West Flanders,Veurne,Koksijde,4,8670,,,,AS_NEW,1997.0,470000.0,,4.0,,4.0,4.0,True,,,,True,,,,2.0,0.0,2.0,False,False,,1.0,,,185.0,B,False,
10619103,APARTMENT,APARTMENT,Flanders,West Flanders,Veurne,Nieuwpoort,4,8620,,,,AS_NEW,2001.0,280000.0,,2.0,,6.0,6.0,True,,,,,,,,1.0,0.0,1.0,False,False,,,,,490.0,E,True,
10619106,APARTMENT,APARTMENT,Flanders,West Flanders,Veurne,Koksijde,4,8670,Fafchampstraat 12,51.122211,2.6405856,AS_NEW,1997.0,470000.0,,4.0,,4.0,4.0,True,,,,True,,,,2.0,0.0,2.0,False,False,,1.0,,,185.0,B,False,
10619109,HOUSE,HOUSE,Flanders,West Flanders,Oostend,Oostende,3,8400,Verenigingstraat 4,51.220162,2.8996443,TO_RENOVATE,,180000.0,1224.0,4.0,147.0,,,False,,,,True,,0.0,,1.0,0.0,2.0,False,False,,1.0,,,857.0,F,False,
10619118,APARTMENT,APARTMENT,Brussels,Brussels,Brussels,Ixelles,2,1050,Berkendael 203,50.8168137,4.353164,TO_BE_DONE_UP,,480000.0,4571.0,2.0,105.0,4.0,4.0,False,,,,,,,HYPER_EQUIPPED,1.0,0.0,1.0,False,False,,,,,690.0,G,,
10619112,APARTMENT,APARTMENT,Flanders,East Flanders,Sint-Niklaas,Sint-Niklaas,3,9100,Oude Molenstraat 107,51.1715678,4.1563089,AS_NEW,2014.0,273000.0,3289.0,2.0,83.0,0.0,,True,,True,,True,,,,1.0,0.0,1.0,False,False,,,,,118.0,B,True,
10619117,APARTMENT,APARTMENT,Flanders,Antwerp,Antwerp,Deurne,3,2100,Petrus de Beuckelaerlaan 22,51.2269195,4.4809063,GOOD,,184000.0,2300.0,2.0,80.0,3.0,3.0,,2.0,,,,,,NOT_INSTALLED,1.0,0.0,1.0,True,,,,,,172.0,B,True,
10619133,APARTMENT,APARTMENT,Flanders,East Flanders,Sint-Niklaas,Sint-Niklaas,3,9100,,,,AS_NEW,2017.0,419000.0,4276.0,2.0,98.0,1.0,,True,2.0,,,True,14.0,,USA_HYPER_EQUIPPED,1.0,0.0,1.0,False,,,1.0,1.0,,79.0,A,True,
10619140,APARTMENT,GROUND_FLOOR,Brussels,Brussels,Brussels,Uccle,4,1180,,,,AS_NEW,1999.0,495000.0,4091.0,3.0,121.0,0.0,,,2.0,True,150.0,True,20.0,,INSTALLED,2.0,0.0,2.0,False,,,1.0,,,231.0,E,True,
10619165,APARTMENT,APARTMENT,Wallonie,Walloon Brabant,Nivelles,Ittre,4,1460,,,,AS_NEW,2010.0,395000.0,2394.0,3.0,165.0,0.0,1.0,False,3.0,True,300.0,True,100.0,,INSTALLED,1.0,1.0,1.0,False,True,,,1.0,,143.0,B,,
10619164,APARTMENT,APARTMENT,Wallonie,Walloon Brabant,Nivelles,Ittre,4,1460,,,,AS_NEW,2010.0,225000.0,2250.0,2.0,100.0,0.0,1.0,False,2.0,True,200.0,True,40.0,,INSTALLED,1.0,1.0,1.0,False,True,,,1.0,,237.0,C,,
10619166,APARTMENT,APARTMENT,Wallonie,Walloon Brabant,Nivelles,Ittre,4,1460,,,,AS_NEW,2010.0,275000.0,1774.0,3.0,155.0,0.0,1.0,False,3.0,,,True,25.0,,INSTALLED,1.0,1.0,1.0,False,,,,1.0,,343.0,E,,
10619199,APARTMENT,APARTMENT,Wallonie,Liège,Liège,Seraing,3,4100,Rue de Rotheux 329,50.577672,5.503023,GOOD,1973.0,155000.0,2153.0,2.0,72.0,7.0,12.0,True,2.0,,,True,,,INSTALLED,1.0,0.0,1.0,False,False,,,,,194.0,C,True,
10619203,APARTMENT,APARTMENT,Flanders,Antwerp,Antwerp,Antwerp,2,2020,Kruishofstraat 146,51.1821176,4.391481,,1964.0,169500.0,2322.0,1.0,73.0,6.0,,True,,,,,,,,1.0,0.0,,False,False,,,,,154.0,B,True,
10619181,APARTMENT,APARTMENT,Flanders,Antwerp,Antwerp,Antwerp,2,2018,"Korte Lozanastraat 2,6",51.1970597,4.4076853,AS_NEW,,315000.0,3316.0,2.0,95.0,1.0,7.0,True,2.0,,,True,4.0,,HYPER_EQUIPPED,1.0,0.0,,False,,,,,,85.0,A,True,
10619172,APARTMENT,APARTMENT,Brussels,Brussels,Brussels,Woluwe-Saint-Pierre,4,1150,Avenue Jules du Jardin 39,50.83022,4.4546922,AS_NEW,1959.0,400000.0,4706.0,3.0,85.0,2.0,5.0,True,2.0,,,True,,,HYPER_EQUIPPED,1.0,1.0,1.0,False,False,,,,,,,True,
10619207,APARTMENT,APARTMENT,Brussels,Brussels,Brussels,Woluwe-Saint-Pierre,4,1150,Avenue des Eperviers 111,50.8246163,4.4122993,TO_BE_DONE_UP,1964.0,310000.0,3924.0,2.0,79.0,8.0,9.0,,3.0,,,True,16.0,,,1.0,0.0,1.0,False,,,,,,144.0,C,True,
10619215,APARTMENT,FLAT_STUDIO,Flanders,Antwerp,Antwerp,Antwerp,1,2000,Hopland 45,51.2167909,4.4114147,GOOD,1970.0,194500.0,4420.0,1.0,44.0,2.0,,,,,,,,,INSTALLED,1.0,1.0,1.0,False,,,,,,192.0,B,True,
10619217,APARTMENT,SERVICE_FLAT,Flanders,Antwerp,Mechelen,Puurs-Sint-Amands,4,2870,Molenheide 58-60,51.0391833,4.3256871,AS_NEW,2020.0,229000.0,3271.0,1.0,70.0,0.0,,True,2.0,,,True,,,HYPER_EQUIPPED,1.0,0.0,2.0,False,False,,,,,83.0,A,True,
10619218,APARTMENT,APARTMENT,Flanders,Antwerp,Antwerp,Stabroek,4,2940,Berkenlaan 7,51.3080085,4.4060889,,1971.0,199000.0,2488.0,2.0,80.0,0.0,,,2.0,,,True,,,,1.0,0.0,1.0,False,,,,1.0,,304.0,D,True,
10619222,APARTMENT,APARTMENT,Flanders,Flemish Brabant,Halle-Vilvoorde,Overijse,2,3090,Parklaan 200,50.7301834,4.523168,AS_NEW,1959.0,349000.0,4362.0,2.0,80.0,1.0,2.0,True,4.0,,,True,3.0,,INSTALLED,1.0,0.0,1.0,False,False,,1.0,,,129.0,B,True,
10619221,APARTMENT,DUPLEX,Flanders,East Flanders,Aalst,Denderleeuw,4,9470,Moreelstraat 61,50.8803008,4.0782095,GOOD,2004.0,210000.0,2283.0,2.0,92.0,2.0,,,,,,,,,INSTALLED,1.0,0.0,2.0,False,,,1.0,,,172.0,B,True,
10619227,APARTMENT,APARTMENT,Flanders,Antwerp,Mechelen,Willebroek,4,2830,Scheldelaan 40,51.0597525,4.3445564,AS_NEW,,249500.0,2970.0,1.0,84.0,1.0,4.0,True,2.0,,,True,8.0,,HYPER_EQUIPPED,1.0,0.0,2.0,False,,,1.0,1.0,,130.0,B,True,
10619235,APARTMENT,PENTHOUSE,Brussels,Brussels,Brussels,Woluwe-Saint-Pierre,4,1150,Avenue de l'Atlantique 88,50.8295399,4.418699,TO_BE_DONE_UP,1958.0,285000.0,4071.0,1.0,70.0,5.0,5.0,True,2.0,,,True,25.0,,INSTALLED,1.0,0.0,1.0,False,False,,,,,670.0,G,,
10619229,APARTMENT,DUPLEX,Flanders,Antwerp,Mechelen,Willebroek,4,2830,,,,,,305000.0,2179.0,3.0,140.0,0.0,4.0,True,,,,True,19.0,,HYPER_EQUIPPED,1.0,1.0,2.0,False,,,1.0,1.0,,146.0,B,True,
10619239,APARTMENT,APARTMENT,Flanders,Antwerp,Antwerp,Antwerpen Deurne,3,2100,August van de Wielelei 269 - 271,51.2168375,4.4885147,GOOD,,1750000.0,,14.0,,0.0,,True,,,,,,,,,0.0,,False,,,6.0,2.0,,124.0,B,,
10619230,APARTMENT,DUPLEX,Flanders,Antwerp,Mechelen,Willebroek,4,2830,,,,,,305000.0,2179.0,3.0,140.0,0.0,4.0,True,,,,True,19.0,,HYPER_EQUIPPED,1.0,1.0,2.0,False,,,1.0,1.0,,146.0,B,True,
10619251,APARTMENT,APARTMENT,Brussels,Brussels,Brussels,Uccle,4,1180,"Avenue Bourgmestre Jean Herinckx 8,24",50.8096972,4.3494033,AS_NEW,1980.0,248000.0,3758.0,1.0,66.0,1.0,8.0,,2.0,,,True,7.0,,INSTALLED,1.0,1.0,1.0,False,,,1.0,1.0,,198.0,D,True,
10619226,APARTMENT,APARTMENT,Brussels,Brussels,Brussels,Bruxelles,1,1000,Quai au Foin 59-65,50.8558275,4.3486442,AS_NEW,2025.0,420000.0,6087.0,1.0,69.0,4.0,6.0,True,,,,True,24.0,,USA_HYPER_EQUIPPED,1.0,1.0,1.0,False,False,,,1.0,,46.0,B,True,
10619225,APARTMENT,APARTMENT,Brussels,Brussels,Brussels,Auderghem,4,1160,Boulevard du Triomphe 201,50.8163956,4.3989398,AS_NEW,2023.0,345000.0,4929.0,1.0,70.0,3.0,11.0,True,,,,True,13.0,,USA_HYPER_EQUIPPED,1.0,0.0,1.0,False,False,,,1.0,,45.0,A,,
10619274,APARTMENT,APARTMENT,Flanders,East Flanders,Gent,Gent,1,9000,Kortrijksesteenweg 625,51.0350484,3.7165235,GOOD,1963.0,529000.0,2907.0,4.0,182.0,2.0,7.0,True,2.0,,,,,,USA_INSTALLED,1.0,0.0,2.0,False,False,,1.0,1.0,,116.0,B,True,
10619285,APARTMENT,LOFT,Flanders,East Flanders,Gent,Gent,1,9000,"Academiestraat 1,A2.04",51.0595609,3.7197564,AS_NEW,,835000.0,,3.0,,2.0,3.0,True,,,,True,15.0,,NOT_INSTALLED,1.0,0.0,,False,False,,1.0,1.0,,,,True,
10619303,APARTMENT,APARTMENT,Wallonie,Hainaut,Tournai,Tournai,3,7500,,,,JUST_RENOVATED,,149000.0,3239.0,1.0,46.0,2.0,1.0,False,2.0,,,,,,INSTALLED,1.0,0.0,,False,False,,,,,167.0,B,True,
10619309,APARTMENT,APARTMENT,Wallonie,Hainaut,Tournai,Tournai,3,7500,,,,GOOD,,129000.0,1330.0,2.0,97.0,0.0,,False,2.0,True,80.0,,,,INSTALLED,1.0,1.0,1.0,False,False,,,,,395.0,E,True,
10619323,APARTMENT,APARTMENT,Wallonie,Hainaut,Tournai,Tournai,3,7500,,,,AS_NEW,,330000.0,2619.0,2.0,126.0,0.0,3.0,True,,,,True,,,INSTALLED,1.0,1.0,2.0,False,False,,1.0,,,249.0,C,,
10619322,APARTMENT,APARTMENT,Wallonie,Hainaut,Tournai,Tournai,3,7500,Rue du Cure Notre Dame 16,50.607482,3.3889951,JUST_RENOVATED,,149000.0,3170.0,1.0,47.0,1.0,2.0,False,2.0,,,True,,,INSTALLED,1.0,1.0,1.0,False,False,,,,,269.0,D,True,
10619313,APARTMENT,APARTMENT,Wallonie,Hainaut,Tournai,Tournai,3,7500,,,,AS_NEW,,235000.0,1767.0,2.0,133.0,1.0,4.0,True,2.0,,,True,,,HYPER_EQUIPPED,1.0,1.0,1.0,False,False,,,1.0,,255.0,C,True,
10619329,APARTMENT,APARTMENT,Wallonie,Hainaut,Tournai,Tournai,3,7500,"Rue des Fougères 8,21",50.5944511,3.3967333,AS_NEW,2013.0,269000.0,2745.0,2.0,98.0,1.0,3.0,True,2.0,,,True,,,INSTALLED,1.0,1.0,1.0,False,False,,1.0,,,161.0,B,,
10619341,APARTMENT,APARTMENT,Wallonie,Hainaut,Tournai,Tournai,3,7500,Avenue Leray 20,50.6129029,3.3919055,GOOD,,349000.0,2181.0,1.0,160.0,0.0,,False,3.0,True,53.0,True,67.0,,,1.0,0.0,,False,,,1.0,1.0,,267.0,D,True,
10619342,APARTMENT,APARTMENT,Wallonie,Hainaut,Tournai,Tournai,3,7500,Avenue Leray 20,50.6129029,3.3919055,GOOD,,195000.0,1612.0,1.0,121.0,0.0,,False,,,,True,,,,1.0,0.0,,False,,,,1.0,,252.0,C,True,
10619325,APARTMENT,APARTMENT,Wallonie,Hainaut,Tournai,Tournai,3,7500,,,,GOOD,,89000.0,1561.0,1.0,57.0,0.0,1.0,False,,,,,,,SEMI_EQUIPPED,1.0,1.0,1.0,False,False,,,,,145.0,B,,
10619340,APARTMENT,APARTMENT,Wallonie,Hainaut,Tournai,Tournai,3,7500,Avenue Leray 20,50.6129029,3.3919055,GOOD,,129000.0,1925.0,1.0,67.0,0.0,,,3.0,,,,,,USA_SEMI_EQUIPPED,1.0,0.0,,False,,,,1.0,,255.0,C,True,
10619343,APARTMENT,APARTMENT,Wallonie,Hainaut,Tournai,Tournai,3,7500,Avenue Leray 20,50.6129029,3.3919055,GOOD,,195000.0,1413.0,2.0,138.0,0.0,,False,3.0,,,True,8.0,,,1.0,0.0,,False,,,,,,347.0,E,True,
10619351,HOUSE,MIXED_USE_BUILDING,Wallonie,Walloon Brabant,Nivelles,Nivelles,3,1400,rue de Namur 27,50.5983879,4.3259071,GOOD,,250000.0,2500.0,2.0,100.0,,,,2.0,,,,,0.0,,1.0,0.0,,False,,,,,,254.0,C,,
10619390,APARTMENT,APARTMENT,Flanders,Antwerp,Antwerp,Hemiksem,4,2620,Abdijstraat 11,51.1349204,4.3361433,TO_BE_DONE_UP,1956.0,182000.0,2167.0,2.0,84.0,1.0,,False,2.0,,,True,,,HYPER_EQUIPPED,1.0,0.0,1.0,False,False,,1.0,1.0,,183.0,B,True,
10619396,APARTMENT,DUPLEX,Wallonie,Liège,Liège,Liege,2,4020,Rue des Maraichers 67,50.6389542,5.5939928,,,150000.0,1875.0,2.0,80.0,0.0,3.0,False,,,,,,,INSTALLED,2.0,2.0,2.0,False,,,,,,362.0,E,True,
10488304,HOUSE,HOUSE,Wallonie,Hainaut,Ath,Ath,3,7800,Avenue Vauban 39,50.6266733,3.7889944,TO_RENOVATE,,185000.0,1762.0,3.0,105.0,,,,3.0,True,,,,235.0,SEMI_EQUIPPED,1.0,0.0,1.0,True,,,,,,529.0,G,True,
10619377,APARTMENT,APARTMENT,Flanders,Antwerp,Turnhout,Mol,3,2400,"Corbiestraat 6,3",51.1858033,5.1173165,GOOD,,269000.0,2205.0,3.0,122.0,2.0,,True,,,,True,,,INSTALLED,,0.0,,False,False,,1.0,,,151.0,B,True,
10619406,APARTMENT,APARTMENT,Wallonie,Luxembourg,Marche-en-Famenne,Marche-en-Famenne,3,6900,,,,AS_NEW,2023.0,247200.0,,2.0,,1.0,4.0,True,2.0,,,True,5.0,,,1.0,1.0,1.0,False,False,,,1.0,,58.0,A,True,
10619375,APARTMENT,APARTMENT,Flanders,Flemish Brabant,Halle-Vilvoorde,Grimbergen,4,1850,Groot-Molenveldlaan 11,50.924674,4.3985386,GOOD,1990.0,279000.0,3577.0,2.0,78.0,2.0,3.0,False,2.0,,,,,,,1.0,0.0,1.0,False,False,,1.0,1.0,,369.0,D,True,
10619416,APARTMENT,APARTMENT,Wallonie,Namur,Namur,Andenne Thon,3,5300,Le Square 4,50.467136,4.9952139,GOOD,1950.0,145000.0,2071.0,2.0,70.0,1.0,3.0,False,3.0,,,,,,,1.0,0.0,1.0,False,,,,1.0,,579.0,G,True,
10619411,APARTMENT,SERVICE_FLAT,Wallonie,Liège,Liège,Chaudfontaine,2,4053,,,,AS_NEW,1973.0,115000.0,1742.0,1.0,66.0,1.0,5.0,True,4.0,,,True,,,SEMI_EQUIPPED,1.0,0.0,1.0,False,False,,,,,223.0,C,True,
10619459,APARTMENT,APARTMENT,Flanders,Flemish Brabant,Leuven,Aarschot,3,3200,Marten Lemmensstraat 75A,50.9897461,4.8287102,AS_NEW,,250000.0,3788.0,2.0,66.0,2.0,3.0,,3.0,,,True,,,,1.0,0.0,,False,,,,,,110.0,B,,
10488379,APARTMENT,APARTMENT,Flanders,Antwerp,Antwerp,Aartselaar,4,2630,Emiel Hullebroecklaan 5,51.1115045,4.3669909,,2023.0,280000.0,3294.0,2.0,85.0,2.0,2.0,,2.0,,,True,4.0,,INSTALLED,1.0,0.0,1.0,True,,,1.0,,,,,True,
10619408,APARTMENT,APARTMENT,Brussels,Brussels,Brussels,Uccle,4,1180,,,,AS_NEW,1946.0,1185000.0,4017.0,4.0,295.0,2.0,5.0,True,2.0,,,True,10.0,,HYPER_EQUIPPED,2.0,0.0,2.0,False,False,,,2.0,,301.0,F,True,
10357312,APARTMENT,APARTMENT,Flanders,Antwerp,Antwerp,Antwerpen,4,2610,Rucaplein 11,51.1780736,4.421464,GOOD,1964.0,259000.0,1992.0,2.0,130.0,10.0,1.0,True,3.0,,,True,,,,1.0,0.0,1.0,False,False,False,,,,162.0,B,True,
10619451,APARTMENT,GROUND_FLOOR,Wallonie,Namur,Namur,Namur,1,5000,,,,GOOD,1983.0,175000.0,1522.0,3.0,115.0,0.0,5.0,True,2.0,,,True,7.0,,SEMI_EQUIPPED,1.0,0.0,1.0,False,False,,,,,513.0,G,,
10619472,HOUSE,HOUSE,Flanders,West Flanders,Tielt,Meulebeke,4,8760,Spichtenstraat 7,50.9368391,3.2979232,,1974.0,248500.0,,3.0,,,,False,,,,True,,678.0,,1.0,0.0,1.0,False,False,,1.0,1.0,,588.0,F,False,
10619483,HOUSE,VILLA,Wallonie,Hainaut,Charleroi,ChÃtelet,3,6200,Rue de Namur 349,50.3941716,4.5460717,TO_BE_DONE_UP,,249000.0,1844.0,3.0,135.0,,,False,,True,,,,1949.0,INSTALLED,1.0,0.0,1.0,False,False,,1.0,,,583.0,G,False,
10619481,APARTMENT,FLAT_STUDIO,Flanders,East Flanders,Gent,Gent,1,9000,Oudescheldestraat 92,51.0489621,3.7300066,TO_BE_DONE_UP,1999.0,210000.0,4286.0,1.0,49.0,5.0,5.0,True,,,,,,,INSTALLED,1.0,0.0,1.0,False,False,,,,,366.0,D,True,
10357327,HOUSE,VILLA,Flanders,West Flanders,Brugge,Knokke-Heist,3,8300,Canadasquare 2,51.3481308,3.2796823,JUST_RENOVATED,1983.0,4275000.0,10795.0,4.0,396.0,,,False,,True,,,,372.0,,3.0,0.0,4.0,True,False,,5.0,2.0,,110.0,B,True,
10619487,APARTMENT,APARTMENT,Flanders,West Flanders,Brugge,Brugge,1,8000,Komvest 34B,51.2199437,3.2232865,GOOD,1973.0,265000.0,1920.0,2.0,138.0,4.0,,True,,,,True,,,USA_INSTALLED,2.0,2.0,1.0,False,,,1.0,1.0,,142.0,B,,
10619492,APARTMENT,APARTMENT,Flanders,Flemish Brabant,Leuven,Tienen,3,3300,Kliniekstraat 28,50.8112073,4.9306967,AS_NEW,,275000.0,3161.0,2.0,87.0,2.0,1.0,True,2.0,,,True,15.0,,HYPER_EQUIPPED,1.0,0.0,1.0,False,,,1.0,1.0,,61.0,A,True,
10619505,APARTMENT,APARTMENT,Wallonie,Luxembourg,Neufchâteau,Neufchateau-Longlier,4,6840,,49.8633314,5.4720888,,2023.0,216500.0,2517.0,2.0,86.0,1.0,2.0,False,,,,True,10.0,,NOT_INSTALLED,2.0,0.0,1.0,False,False,,,,,115.0,B,True,
10488454,APARTMENT,DUPLEX,Flanders,Flemish Brabant,Leuven,Tienen,3,3300,Grote Bergstraat 14 B,50.8044189,4.9400398,GOOD,,315000.0,2944.0,2.0,107.0,0.0,2.0,False,,True,113.0,True,19.0,,,1.0,0.0,2.0,False,,False,,,,177.0,B,True,
10619556,APARTMENT,DUPLEX,Flanders,East Flanders,Gent,Merelbeke,4,9820,Hundelgemsesteenweg 304,51.0125422,3.7511919,GOOD,2001.0,500000.0,3846.0,2.0,130.0,2.0,,True,2.0,,,True,20.0,,,2.0,0.0,1.0,True,,,1.0,,,147.0,B,,
10619547,APARTMENT,APARTMENT,Flanders,Flemish Brabant,Halle-Vilvoorde,Dilbeek,3,1700,Kalenbergstraat 29,50.8421546,4.2590559,TO_RENOVATE,1970.0,260000.0,2407.0,2.0,108.0,3.0,3.0,,3.0,,,True,2.0,,NOT_INSTALLED,1.0,0.0,1.0,False,,,1.0,2.0,,282.0,C,True,
10619552,APARTMENT,APARTMENT,Flanders,Antwerp,Antwerp,Aartselaar,4,2630,,51.1334884,4.3881455,,,388200.0,3844.0,2.0,101.0,3.0,,,2.0,True,1.0,,,,,1.0,0.0,,False,,,,,,,,,
10619498,APARTMENT,APARTMENT,Flanders,Antwerp,Antwerp,Antwerpen,1,2000,Lange Nieuwstraat 34,51.2197424,4.4078979,AS_NEW,2009.0,269000.0,,1.0,,1.0,,True,,,,True,6.0,,,1.0,0.0,1.0,False,False,False,,,,82.0,A,False,
10619594,APARTMENT,APARTMENT,Flanders,Antwerp,Antwerp,Berchem,3,2600,Fruithoflaan 120,51.1857298,4.441582,GOOD,1975.0,399000.0,2850.0,2.0,140.0,10.0,,True,,,,True,30.0,,HYPER_EQUIPPED,1.0,0.0,1.0,False,,,2.0,7.0,,95.0,A,True,
10619557,APARTMENT,APARTMENT,Brussels,Brussels,Brussels,Woluwe-Saint-Lambert,3,1200,,,,,1980.0,360000.0,4000.0,2.0,90.0,2.0,3.0,False,2.0,,,,,,,1.0,0.0,,False,False,False,,,,,,False,
10619605,APARTMENT,APARTMENT,Brussels,Brussels,Brussels,Uccle,4,1180,,,,AS_NEW,1946.0,1185000.0,4017.0,4.0,295.0,2.0,5.0,True,,,,True,10.0,,HYPER_EQUIPPED,2.0,0.0,2.0,False,False,,,,,301.0,F,True,
10619603,APARTMENT,APARTMENT,Wallonie,Hainaut,Tournai,Péruwelz,3,7600,Rue De Sondeville 144,50.5021653,3.5884918,JUST_RENOVATED,2022.0,225000.0,2528.0,2.0,89.0,1.0,1.0,False,2.0,,,,,,USA_HYPER_EQUIPPED,1.0,0.0,1.0,False,False,False,,1.0,,91.0,B,True,
10619619,APARTMENT,FLAT_STUDIO,Wallonie,Liège,Liège,Liège,1,4000,Boulevard d'Avroy 142,50.6345586,5.5671823,TO_BE_DONE_UP,1968.0,79000.0,2257.0,1.0,35.0,3.0,1.0,True,2.0,,,,,,,1.0,0.0,,False,False,,,,,214.0,C,False,
10619628,APARTMENT,APARTMENT,Flanders,Flemish Brabant,Halle-Vilvoorde,Zemst Elewijt,4,1982,,,,,2023.0,323000.0,3198.0,2.0,101.0,1.0,2.0,False,4.0,,,True,12.0,,HYPER_EQUIPPED,1.0,1.0,1.0,False,,,,1.0,,,,True,
10619623,APARTMENT,APARTMENT,Brussels,Brussels,Brussels,Ixelles,2,1050,Avenue Franklin Roosevelt 188,50.8029922,4.3887789,GOOD,1930.0,470000.0,2956.0,2.0,159.0,3.0,4.0,True,2.0,,,True,,,HYPER_EQUIPPED,1.0,1.0,2.0,False,False,,1.0,,,295.0,F,,
10619634,APARTMENT,APARTMENT,Brussels,Brussels,Brussels,Saint-Gilles,2,1060,,,,GOOD,,225000.0,4412.0,1.0,51.0,1.0,4.0,,2.0,,,True,5.0,,USA_INSTALLED,1.0,0.0,,False,,,,,,,,,
10619638,APARTMENT,APARTMENT,Wallonie,Liège,Liège,Liege,2,4020,Quai Godefroid Kurth 84,50.6473255,5.5955507,TO_RENOVATE,1966.0,145000.0,2014.0,2.0,72.0,8.0,10.0,True,2.0,,,True,7.0,,,1.0,0.0,1.0,False,,,,,,166.0,B,True,
10619656,APARTMENT,DUPLEX,Flanders,Antwerp,Turnhout,Geel,4,2440,Veldstraat 27,51.1583471,4.985383,GOOD,2012.0,275000.0,2115.0,3.0,130.0,2.0,,,,,,True,9.0,,,2.0,0.0,1.0,False,,,,,,147.0,B,True,
10619660,APARTMENT,PENTHOUSE,Flanders,Flemish Brabant,Leuven,Leuven,1,3000,Kalkstraat 4,50.8866641,4.7040794,,,457596.0,4050.0,2.0,113.0,0.0,,,,,,True,9.0,,,,0.0,,False,,,,,,,,,
10619657,APARTMENT,DUPLEX,Flanders,Antwerp,Turnhout,Geel,4,2440,Veldstraat 27,51.1583471,4.985383,AS_NEW,,275000.0,2619.0,3.0,105.0,2.0,,,,,,True,9.0,,,2.0,0.0,1.0,False,,,,,,144.0,B,True,
10488569,APARTMENT,APARTMENT,Wallonie,Hainaut,Mons,Mons,2,7011,Rue Des Walbrées 2B,50.4678557,3.9209134,,2022.0,175000.0,,3.0,,3.0,3.0,False,2.0,,,,,,,1.0,1.0,1.0,False,False,False,,,,106.0,B,True,
10488756,HOUSE,HOUSE,Flanders,East Flanders,Gent,Deinze,3,9800,Oude Brugsepoort 117,50.9910523,3.517576,,1961.0,335000.0,1196.0,6.0,280.0,,,False,,True,,,,424.0,,2.0,0.0,2.0,False,False,,,,,,,False,
10488761,HOUSE,MIXED_USE_BUILDING,Flanders,East Flanders,Gent,Deinze,3,9800,Oude Brugsepoort 117,50.9910523,3.517576,,1961.0,335000.0,1196.0,6.0,280.0,,,False,,True,,,,424.0,,2.0,0.0,2.0,False,False,,,,,,,False,
10488824,HOUSE,BUNGALOW,Flanders,Flemish Brabant,Leuven,Winksele,2,3020,Dorpsstraat 33,50.9000536,4.6456683,GOOD,2012.0,425000.0,2179.0,3.0,195.0,,,False,4.0,True,430.0,,,629.0,INSTALLED,2.0,1.0,,True,False,,1.0,3.0,,192.0,B,True,
10620175,APARTMENT,APARTMENT,Wallonie,Liège,Liège,Chênée,2,4032,Rue du Confluent 12,50.6127081,5.6137765,TO_RENOVATE,,100000.0,1695.0,1.0,59.0,0.0,2.0,,2.0,,,,,,,1.0,0.0,1.0,False,,,,,,230.0,C,,
10488762,APARTMENT,APARTMENT,Flanders,East Flanders,Gent,Deinze,3,9800,Oude Brugsepoort 117,50.9910523,3.517576,,1961.0,335000.0,1196.0,6.0,280.0,0.0,,False,,True,,,,,,2.0,0.0,2.0,False,False,,,,,,,False,
10620173,APARTMENT,GROUND_FLOOR,Wallonie,Namur,Namur,Moustier-sur-Sambre,4,5190,Rue de la Station 130,50.4556376,4.6947973,AS_NEW,2023.0,228400.0,2379.0,2.0,96.0,0.0,,True,4.0,True,100.0,True,15.0,,HYPER_EQUIPPED,,1.0,1.0,False,,,,2.0,,113.0,B,True,
10620176,APARTMENT,APARTMENT,Wallonie,Liège,Liège,Chênée,2,4032,Rue du Confluent 12,50.6127081,5.6137765,GOOD,,155000.0,2460.0,1.0,63.0,0.0,2.0,,2.0,,,,,,,1.0,0.0,1.0,False,,,,,,216.0,C,True,
10620181,APARTMENT,LOFT,Flanders,East Flanders,Gent,Melle,2,9090,Oude Heirbaan 37,50.9932607,3.8288548,AS_NEW,2016.0,339000.0,2439.0,2.0,139.0,0.0,2.0,,2.0,,,,,,HYPER_EQUIPPED,1.0,1.0,2.0,False,,,1.0,1.0,,81.0,A,True,
10620177,APARTMENT,DUPLEX,Flanders,West Flanders,Brugge,Brugge,1,8000,Sint-Annarei 25,51.2130954,3.229621,GOOD,1850.0,850000.0,4775.0,3.0,178.0,3.0,4.0,False,,,,True,12.0,,,3.0,0.0,3.0,False,,False,,1.0,,579.0,F,True,
10620232,APARTMENT,LOFT,Brussels,Brussels,Brussels,Bruxelles,1,1000,,,,AS_NEW,1930.0,745000.0,3634.0,2.0,205.0,6.0,7.0,True,2.0,,,True,40.0,,USA_HYPER_EQUIPPED,2.0,2.0,2.0,False,False,,,,,120.0,C,True,
10620199,APARTMENT,APARTMENT,Wallonie,Hainaut,Tournai,Péruwelz,3,7600,,,,,,180000.0,2222.0,2.0,81.0,0.0,,,2.0,,,,,,INSTALLED,1.0,0.0,1.0,False,,,,,,99.0,B,False,
10620219,APARTMENT,APARTMENT,Brussels,Brussels,Brussels,Jette,2,1090,Boulevard de Smet de Naeyer 290,50.8784702,4.3334564,,,147500.0,2543.0,1.0,58.0,1.0,5.0,True,2.0,,,,,,NOT_INSTALLED,1.0,0.0,1.0,False,,,,,,199.0,D,True,
10620236,APARTMENT,APARTMENT,Brussels,Brussels,Brussels,Uccle,4,1180,,,,GOOD,1930.0,350000.0,3500.0,2.0,100.0,1.0,4.0,,2.0,,,,,,INSTALLED,,1.0,1.0,False,,,,,,340.0,F,,
10620264,APARTMENT,APARTMENT,Wallonie,Hainaut,Tournai,Péruwelz,3,7600,Rue De Sondeville 144,50.5021653,3.5884918,JUST_RENOVATED,2022.0,239000.0,,2.0,,1.0,1.0,False,2.0,,,,,,USA_HYPER_EQUIPPED,1.0,0.0,1.0,False,False,False,,10.0,,98.0,B,True,
10620301,APARTMENT,APARTMENT,Brussels,Brussels,Brussels,Watermael-Boitsfort,4,1170,,,,GOOD,1999.0,1695000.0,6494.0,3.0,261.0,0.0,2.0,True,,,,True,,,,2.0,1.0,3.0,True,False,,2.0,,,192.0,D,True,
10620304,APARTMENT,APARTMENT,Brussels,Brussels,Brussels,Anderlecht,2,1070,,,,,1960.0,269000.0,2069.0,2.0,130.0,1.0,3.0,,2.0,,,True,10.0,,INSTALLED,1.0,0.0,1.0,False,,,,,,220.0,E,True,
10620307,APARTMENT,APARTMENT,Flanders,West Flanders,Kortrijk,Harelbeke,4,8530,Kortrijksestraat 38,50.8524063,3.3050636,AS_NEW,2022.0,263000.0,2604.0,2.0,101.0,0.0,3.0,True,3.0,True,150.0,True,56.0,,HYPER_EQUIPPED,1.0,0.0,1.0,False,,,,,,,,,
10620310,APARTMENT,APARTMENT,Brussels,Brussels,Brussels,Bruxelles,1,1000,Avenue Franklin Roosevelt 182,50.803392,4.3884266,GOOD,1938.0,905000.0,,3.0,,3.0,,True,2.0,,,True,,,HYPER_EQUIPPED,3.0,0.0,,False,,,1.0,,,251.0,E,,
10489283,HOUSE,MANSION,Wallonie,Namur,Philippeville,Couvin Culdes-Sarts,4,5660,Chaussee de l'Europe 36,49.9586253,4.4529487,GOOD,,750000.0,1156.0,14.0,649.0,,,,4.0,True,30749.0,True,52.0,31240.0,,2.0,3.0,5.0,False,True,,2.0,14.0,,471.0,F,True,
10620336,APARTMENT,APARTMENT,Flanders,West Flanders,Brugge,Blankenberge,4,8370,A. Ruzettelaan 183,51.3195266,3.1460091,TO_BE_DONE_UP,1978.0,425000.0,3602.0,2.0,118.0,6.0,,True,4.0,,,True,,,,2.0,0.0,,False,False,,1.0,,,101.0,B,True,
10620358,APARTMENT,APARTMENT,Flanders,West Flanders,Brugge,Blankenberge,4,8370,Maurice Devriendtlaan 8,51.3173393,3.1405187,GOOD,1999.0,283000.0,3410.0,2.0,83.0,1.0,5.0,True,2.0,,,True,,,,1.0,0.0,,False,False,,1.0,,,82.0,A,True,
10620361,APARTMENT,APARTMENT,Wallonie,Hainaut,Soignies,La Louvière,3,7100,,,,,,129000.0,2048.0,2.0,63.0,2.0,2.0,False,,,,,,,NOT_INSTALLED,1.0,0.0,,False,False,False,1.0,,,458.0,F,True,
10620366,APARTMENT,LOFT,Wallonie,Liège,Liège,SERAING,3,4100,rue du Val Saint-Lambert 245,50.5926074,5.4817746,GOOD,,179000.0,1827.0,1.0,98.0,0.0,3.0,True,,,,,,,NOT_INSTALLED,1.0,0.0,1.0,False,False,False,1.0,1.0,,454.0,F,False,
10620373,APARTMENT,GROUND_FLOOR,Brussels,Brussels,Brussels,Uccle,4,1180,Avenue du Vossegat 39,50.8024961,4.3293819,GOOD,1965.0,230000.0,2875.0,1.0,80.0,0.0,10.0,True,2.0,,,,,,INSTALLED,,1.0,1.0,True,,,1.0,,,324.0,F,True,
10620380,APARTMENT,GROUND_FLOOR,Flanders,Antwerp,Antwerp,Antwerp,2,2018,Haantjeslei 103,51.201758,4.4015985,GOOD,,385000.0,3632.0,2.0,106.0,0.0,,False,,True,36.0,,,,INSTALLED,,0.0,1.0,False,False,,,,,320.0,D,True,
10620374,APARTMENT,APARTMENT,Brussels,Brussels,Brussels,Uccle,4,1180,Avenue du Vossegat 39,50.8024961,4.3293819,GOOD,1965.0,230000.0,2875.0,1.0,80.0,0.0,10.0,True,2.0,,,,,,INSTALLED,,1.0,1.0,True,,,1.0,,,324.0,F,True,
10620386,APARTMENT,APARTMENT,Wallonie,Namur,Namur,Moustier-sur-Sambre,4,5190,Rue de la Station 128,50.455776,4.6947452,AS_NEW,2023.0,248400.0,2321.0,3.0,107.0,1.0,1.0,True,4.0,True,,True,11.0,,HYPER_EQUIPPED,,1.0,1.0,False,,,,2.0,,108.0,B,True,
10620400,APARTMENT,APARTMENT,Flanders,West Flanders,Tielt,Tielt,3,8700,"Patersdreef 1,0001",50.9991926,3.3261057,AS_NEW,,419000.0,3127.0,3.0,134.0,0.0,,True,,,,True,13.0,,HYPER_EQUIPPED,,0.0,2.0,False,False,,1.0,,,30.0,A,True,
10620401,APARTMENT,APARTMENT,Flanders,West Flanders,Tielt,Tielt,3,8700,"Patersdreef 1,0101",50.9990973,3.3256971,AS_NEW,,349000.0,3292.0,2.0,106.0,1.0,,True,,,,True,11.0,,HYPER_EQUIPPED,,0.0,1.0,False,False,,1.0,,,30.0,A,True,
10620396,APARTMENT,APARTMENT,Wallonie,Walloon Brabant,Nivelles,La Hulpe,4,1310,Rue de la procession 61,50.7319283,4.4948446,JUST_RENOVATED,,285000.0,4318.0,1.0,66.0,0.0,3.0,,3.0,True,10.0,,,,HYPER_EQUIPPED,1.0,1.0,1.0,False,,True,,1.0,,135.0,B,True,
10620416,APARTMENT,GROUND_FLOOR,Wallonie,Luxembourg,Marche-en-Famenne,Marche-en-Famenne,3,6900,Chaussée de Rochefort 73,50.2031575,5.320666,,,490000.0,,30.0,,3.0,,True,,,,,,,,13.0,13.0,,True,,,17.0,,,,,,
10620417,APARTMENT,APARTMENT,Wallonie,Luxembourg,Marche-en-Famenne,Marche-en-Famenne,3,6900,Chaussée de Rochefort 73,50.2031575,5.320666,,,490000.0,,30.0,,3.0,,True,,,,,,,,13.0,13.0,,True,,,17.0,,,,,,
10489338,HOUSE,HOUSE,Flanders,Antwerp,Antwerp,HOEVENEN,4,2940,Antwerpse Steenweg 132,51.3029833,4.4099168,JUST_RENOVATED,1939.0,300000.0,2564.0,3.0,117.0,,,,3.0,True,200.0,,,350.0,,1.0,0.0,1.0,True,,,,3.0,,492.0,E,True,
10620424,APARTMENT,GROUND_FLOOR,Brussels,Brussels,Brussels,Etterbeek,2,1040,Rue De Theux - De Theuxstraat 144,50.8309212,4.3809924,AS_NEW,2008.0,375000.0,5515.0,1.0,68.0,0.0,4.0,True,2.0,True,50.0,True,20.0,,USA_HYPER_EQUIPPED,1.0,0.0,1.0,False,False,False,,,,,,True,
10620492,HOUSE,HOUSE,Flanders,East Flanders,Eeklo,Bassevelde,4,9968,Haantje 4,51.22885,3.69842,TO_RENOVATE,1959.0,230000.0,,3.0,,,,,4.0,,,True,,608.0,NOT_INSTALLED,1.0,0.0,1.0,True,,,1.0,2.0,,1061.0,F,True,
10620476,APARTMENT,APARTMENT,Wallonie,Namur,Dinant,Dinant,3,5500,Place Cardinal Mercier 21,50.2680199,4.9064796,GOOD,,205000.0,2135.0,3.0,96.0,6.0,,,,,,True,6.0,,,1.0,0.0,1.0,False,,,,,,390.0,E,True,
10489406,HOUSE,HOUSE,Wallonie,Namur,Philippeville,Cerfontaine,4,5630,,,,GOOD,1953.0,189000.0,844.0,4.0,224.0,,,False,2.0,,,True,,300.0,,1.0,0.0,2.0,False,,,1.0,,,476.0,F,,
10620497,APARTMENT,APARTMENT,Flanders,East Flanders,Dendermonde,Buggenhout,4,9255,Spoorwegstraat 1,51.0160163,4.2024757,,2010.0,275000.0,2670.0,2.0,103.0,3.0,3.0,True,2.0,,,True,25.0,,,1.0,0.0,,False,False,,,,,140.0,B,False,
10620502,APARTMENT,FLAT_STUDIO,Brussels,Brussels,Brussels,Bruxelles,1,1000,,,,AS_NEW,2016.0,290000.0,5800.0,1.0,50.0,6.0,8.0,True,2.0,,,,,,USA_INSTALLED,1.0,0.0,1.0,False,False,,,,,82.0,B,True,
10620503,APARTMENT,LOFT,Brussels,Brussels,Brussels,Anderlecht,2,1070,rue Georges Moreau 50,50.8372997,4.3277782,,1930.0,229000.0,1145.0,3.0,200.0,0.0,1.0,,2.0,,,,,,,,0.0,,False,,,,,,,,,
10620508,APARTMENT,APARTMENT,Flanders,West Flanders,Oostend,Bredene,4,8450,Derbylaan 80,51.2515898,2.9924185,GOOD,,155000.0,3039.0,2.0,51.0,2.0,,False,,,,,,,INSTALLED,,0.0,1.0,False,False,,,,,363.0,D,True,
10489447,APARTMENT,APARTMENT,Flanders,East Flanders,Dendermonde,Dendermonde,3,9200,"Bareelstraat 1,1",51.0219963,4.114072,AS_NEW,,250000.0,2083.0,3.0,120.0,0.0,4.0,True,,,,True,15.0,,USA_INSTALLED,2.0,1.0,1.0,False,False,,1.0,1.0,,160.0,B,True,
10620519,APARTMENT,FLAT_STUDIO,Wallonie,Liège,Verviers,Eynatten,4,4731,"Pleistrasse 1, 1",50.6921704,6.0834561,GOOD,,75000.0,3409.0,1.0,22.0,0.0,,,,,,,,,NOT_INSTALLED,1.0,0.0,,True,,,,,,371.0,E,,
10620515,APARTMENT,LOFT,Wallonie,Liège,Verviers,Lontzen,4,4710,Rue Mitoyenne 204,50.6625937,5.9788246,AS_NEW,2013.0,590000.0,2389.0,3.0,247.0,1.0,,,4.0,,,True,76.0,,HYPER_EQUIPPED,1.0,0.0,2.0,True,,,,1.0,,306.0,D,True,
10620520,APARTMENT,APARTMENT,Wallonie,Liège,Verviers,Eynatten,4,4731,"Pleistrasse 1, 3",50.6921704,6.0834561,GOOD,,145000.0,4394.0,1.0,33.0,0.0,,,,,,True,,,NOT_INSTALLED,1.0,0.0,,True,,,,,,459.0,F,True,
10620546,APARTMENT,APARTMENT,Brussels,Brussels,Brussels,ANDERLECHT,2,1070,Avenue Frans Van Kalken 6,50.8269794,4.3055404,,,175000.0,2431.0,2.0,72.0,10.0,13.0,True,,,,True,12.0,,INSTALLED,1.0,0.0,1.0,False,False,False,,,,130.0,C,True,
10620575,APARTMENT,APARTMENT,Flanders,Antwerp,Antwerp,Antwerp,1,2000,Keizerstraat 65,51.2213943,4.4099164,,2021.0,485000.0,5389.0,2.0,90.0,2.0,3.0,,,,,True,7.0,,,,0.0,,False,,,13.0,,,,,,
10620548,APARTMENT,DUPLEX,Flanders,Flemish Brabant,Halle-Vilvoorde,Linkebeek,4,1630,"Boterberg 1, 2",50.7756555,4.3251176,AS_NEW,,395000.0,2324.0,3.0,170.0,1.0,2.0,,,,,,,,,1.0,0.0,2.0,True,,,,,,499.0,E,True,
10620547,HOUSE,HOUSE,Wallonie,Liège,Liège,Herstal,2,4040,Boulevard Zénobe Gramme 182,50.6586573,5.626957,JUST_RENOVATED,,280000.0,1637.0,5.0,171.0,,,False,3.0,True,100.0,True,12.0,250.0,NOT_INSTALLED,1.0,0.0,,False,False,False,,,,,E,True,
10620589,APARTMENT,APARTMENT,Flanders,Antwerp,Antwerp,Deurne,3,2100,Oudkasteelplein 19,51.2310228,4.4629474,JUST_RENOVATED,1966.0,205000.0,2356.0,2.0,87.0,1.0,,,,,,,,,HYPER_EQUIPPED,1.0,0.0,1.0,True,,,,,,167.0,B,True,
10620597,APARTMENT,APARTMENT,Flanders,West Flanders,Brugge,Blankenberge,4,8370,"Zeedijk 152,",51.31661,3.1303564,GOOD,1966.0,335000.0,3895.0,3.0,86.0,3.0,,True,2.0,,,,,,INSTALLED,1.0,0.0,1.0,False,False,,,,,164.0,B,True,
10620590,HOUSE,HOUSE,Flanders,East Flanders,Gent,Gentbrugge,2,9050,Jozef Wautersstraat 9,51.0401065,3.7576481,TO_RENOVATE,1930.0,295000.0,1891.0,3.0,156.0,,,,2.0,True,9.0,True,7.0,90.0,SEMI_EQUIPPED,1.0,0.0,1.0,False,,,1.0,1.0,,343.0,D,True,
10620593,APARTMENT,APARTMENT,Flanders,West Flanders,Veurne,Koksijde,4,8670,"Zeedijk 360,",51.1200105,2.6318631,GOOD,1967.0,295000.0,4836.0,2.0,61.0,2.0,,False,2.0,,,,,,,1.0,0.0,1.0,False,False,,,,,131.0,B,True,
10620601,APARTMENT,PENTHOUSE,Flanders,West Flanders,Roeselare,Oostnieuwkerke,4,8840,"Sleihagestraat 1,1",50.9408786,3.0592952,,,275000.0,1950.0,3.0,141.0,0.0,,False,2.0,,,True,,,INSTALLED,1.0,0.0,2.0,False,False,,,,,452.0,E,True,
10620606,HOUSE,VILLA,Wallonie,Walloon Brabant,Nivelles,Waterloo,4,1410,,,,AS_NEW,1997.0,2250000.0,2540.0,7.0,886.0,,,False,4.0,True,500.0,True,200.0,1359.0,INSTALLED,2.0,3.0,7.0,True,True,True,4.0,3.0,,132.0,B,True,
10620627,APARTMENT,APARTMENT,Flanders,East Flanders,Sint-Niklaas,Sint-Niklaas,3,9100,"Hazewindstraat 4,",51.1608136,4.1324846,TO_BE_DONE_UP,1956.0,189000.0,1340.0,3.0,141.0,2.0,,True,2.0,True,,,,,,1.0,0.0,1.0,False,False,,,,,562.0,F,True,
10620628,APARTMENT,APARTMENT,Flanders,East Flanders,Sint-Niklaas,Sint-Niklaas,3,9100,"Bellestraat 84,",51.1754873,4.1764228,GOOD,2009.0,349000.0,3262.0,2.0,107.0,2.0,,True,2.0,True,,True,,,,1.0,0.0,1.0,False,False,,1.0,,,110.0,B,True,
10620646,APARTMENT,APARTMENT,Flanders,West Flanders,Veurne,Koksijde,4,8670,Koninginnelaan 98,51.1120445,2.6180168,GOOD,2018.0,1020000.0,8293.0,3.0,123.0,1.0,,False,,,,True,29.0,,,2.0,0.0,2.0,False,,False,,,,108.0,B,False,
10620663,APARTMENT,APARTMENT,Wallonie,Liège,Liège,Liège,1,4000,Rue Pierreuse 18,50.6468559,5.5735982,GOOD,,179000.0,1479.0,3.0,121.0,0.0,3.0,,2.0,,,True,63.0,,NOT_INSTALLED,,0.0,2.0,True,,,,,,,,,
10620664,APARTMENT,APARTMENT,Wallonie,Liège,Liège,ROCOURT,1,4000,Rue François Lefebvre 162,50.6833195,5.5492505,,2023.0,279000.0,2426.0,2.0,115.0,2.0,2.0,True,,,,True,22.0,,INSTALLED,,1.0,2.0,True,,,1.0,,,,,True,
10620649,APARTMENT,APARTMENT,Flanders,Antwerp,Antwerp,Wuustwezel,4,2990,Gildenlaan 5,51.389712,4.59961,GOOD,1994.0,275000.0,3395.0,2.0,81.0,1.0,,,3.0,,,True,,,SEMI_EQUIPPED,1.0,0.0,1.0,True,,,2.0,,,297.0,C,,
10620666,APARTMENT,APARTMENT,Wallonie,Liège,Liège,ROCOURT,1,4000,Rue François Lefebvre 162,50.6833195,5.5492505,,2023.0,275000.0,2570.0,2.0,107.0,2.0,2.0,True,,,,True,9.0,,INSTALLED,,1.0,2.0,True,,,1.0,,,,,True,
10620691,APARTMENT,DUPLEX,Wallonie,Namur,Philippeville,Florennes,4,5621,Rue Donveau 49,50.2834296,4.5650131,,,400000.0,667.0,3.0,600.0,1.0,2.0,False,3.0,,,True,31.0,,INSTALLED,1.0,0.0,,False,False,,2.0,,,602.0,G,True,
10620697,APARTMENT,APARTMENT,Brussels,Brussels,Brussels,Anderlecht,2,1070,Avenue Frans van Kalken 5,50.8262981,4.3044438,,,219000.0,2190.0,3.0,100.0,10.0,,True,2.0,,,True,7.0,,,,0.0,,False,False,,,,,,,True,
10620703,APARTMENT,APARTMENT,Brussels,Brussels,Brussels,Schaerbeek,2,1030,Brichautstraat 28,50.8630988,4.3688172,TO_RENOVATE,1905.0,175000.0,2536.0,1.0,69.0,1.0,3.0,False,2.0,,,True,2.0,,NOT_INSTALLED,1.0,1.0,1.0,False,False,,,,,289.0,F,,
10620707,HOUSE,MIXED_USE_BUILDING,Brussels,Brussels,Brussels,Anderlecht,2,1070,rue Georges Moreau 50,50.8372997,4.3277782,,1930.0,595000.0,,6.0,,,,,2.0,,,,,250.0,,3.0,3.0,3.0,False,,,,,,,,,
10620740,APARTMENT,APARTMENT,Flanders,Antwerp,Antwerp,Berchem,3,2600,Jos Ratinckxstraat 1,51.18348,4.44273,TO_BE_DONE_UP,,265000.0,2137.0,2.0,124.0,12.0,12.0,True,,,,,,,,2.0,0.0,,True,,,2.0,,,350.0,D,True,
10620729,HOUSE,HOUSE,Flanders,Flemish Brabant,Halle-Vilvoorde,Sint-Genesius-Rode,4,1640,Astridlaan 24,50.7387318,4.3908091,,1960.0,799000.0,3073.0,5.0,260.0,,,,4.0,,,,,748.0,,,0.0,,True,,,,,,339.0,D,False,
10620783,APARTMENT,APARTMENT,Flanders,West Flanders,Ieper,Ieper,3,8900,Brugseweg 65,50.8582774,2.8895957,GOOD,1977.0,199900.0,2298.0,2.0,87.0,2.0,,True,2.0,,,True,,,INSTALLED,1.0,0.0,1.0,True,,,1.0,,,140.0,B,True,
10620793,APARTMENT,APARTMENT,Flanders,West Flanders,Oostend,Middelkerke,4,8430,IJzerlaan 45,51.1839627,2.8119245,GOOD,1970.0,159000.0,3180.0,1.0,50.0,3.0,3.0,,3.0,,,True,,,SEMI_EQUIPPED,,0.0,,True,,,2.0,,,1200.0,F,True,
10489670,APARTMENT,APARTMENT,Flanders,Antwerp,Antwerp,'s Gravenwezel,4,2970,Wijnegemsteenweg 5,51.2629107,4.5506751,GOOD,1985.0,415000.0,3773.0,2.0,110.0,2.0,2.0,True,,,,True,6.0,,INSTALLED,1.0,0.0,1.0,False,,,1.0,,,199.0,B,True,
10620809,APARTMENT,APARTMENT,Flanders,Flemish Brabant,Halle-Vilvoorde,Zaventem,4,1930,Hoogstraat 3,50.8827434,4.476722,GOOD,2005.0,295000.0,,2.0,,0.0,,True,4.0,True,140.0,True,9.0,,,1.0,0.0,1.0,True,,,1.0,,,177.0,B,,
10620815,APARTMENT,GROUND_FLOOR,Flanders,Antwerp,Antwerp,Antwerp,1,2000,Paradijsstraat 8,51.2217324,4.4122457,GOOD,,179000.0,3510.0,1.0,51.0,0.0,3.0,,2.0,,,,,,INSTALLED,1.0,0.0,1.0,True,,,,,,166.0,B,True,
10620804,APARTMENT,GROUND_FLOOR,Flanders,East Flanders,Aalst,Herzele,4,9550,Stationsstraat 125,50.892932,3.8856475,AS_NEW,2020.0,280000.0,2121.0,1.0,132.0,0.0,,,2.0,True,,True,,,HYPER_EQUIPPED,1.0,1.0,1.0,False,,,,1.0,,160.0,B,,
10620882,APARTMENT,APARTMENT,Wallonie,Walloon Brabant,Nivelles,La Hulpe,4,1310,Rue de la Procession 61,50.7319283,4.4948446,JUST_RENOVATED,,549000.0,3735.0,3.0,147.0,1.0,3.0,,3.0,,,,,,HYPER_EQUIPPED,2.0,1.0,2.0,False,,,,2.0,,75.0,A,True,
10620819,APARTMENT,PENTHOUSE,Brussels,Brussels,Brussels,Woluwe-Saint-Pierre,4,1150,Rue Du Collège Saint-Michel - Sint-Michielskollegestraat 22,50.834612,4.4131598,,2000.0,599000.0,4717.0,3.0,127.0,4.0,,True,,,,True,13.0,,HYPER_EQUIPPED,2.0,0.0,2.0,False,False,False,1.0,,,209.0,D,True,
10620842,APARTMENT,APARTMENT,Flanders,East Flanders,Gent,Gent,1,9000,"Karel de Stoutestraat 27, 27A",51.0374389,3.7324416,TO_RESTORE,1918.0,425000.0,2179.0,3.0,195.0,0.0,2.0,False,2.0,True,39.0,True,4.0,,,2.0,0.0,,False,False,,,,,280.0,C,True,
10620890,APARTMENT,PENTHOUSE,Flanders,East Flanders,Gent,Gent,1,9000,"Klaverstraat 2,301",51.07226,3.71039,AS_NEW,2013.0,470000.0,3534.0,2.0,133.0,3.0,3.0,True,3.0,,,True,95.0,,USA_INSTALLED,1.0,0.0,2.0,False,False,,2.0,2.0,,62.0,A,True,
10620900,APARTMENT,GROUND_FLOOR,Flanders,West Flanders,Oostend,Bredene,4,8450,Derbylaan 72,51.2506371,2.9910228,GOOD,,169000.0,3073.0,2.0,55.0,0.0,,True,,,,True,,,INSTALLED,,0.0,1.0,False,True,,,,,308.0,D,True,
10620911,APARTMENT,APARTMENT,Flanders,Limburg,Hasselt,KOZEN,4,3850,Weyerstraat 14F,50.8767596,5.2403984,,2022.0,270000.0,2269.0,2.0,119.0,1.0,,,2.0,,,True,13.0,,HYPER_EQUIPPED,1.0,0.0,1.0,True,,,,,,83.0,A,,
10620910,APARTMENT,APARTMENT,Wallonie,Walloon Brabant,Nivelles,Nivelles,3,1400,,,,,,399000.0,1864.0,4.0,214.0,3.0,,True,2.0,,,,,,INSTALLED,1.0,1.0,2.0,True,,,2.0,,,114.0,B,True,
10620914,APARTMENT,APARTMENT,Wallonie,Hainaut,Soignies,Soignies,2,7060,,,,,2023.0,189500.0,2787.0,2.0,68.0,0.0,2.0,,4.0,True,81.0,True,7.0,,INSTALLED,,1.0,1.0,False,,,,1.0,,,,False,
10620964,APARTMENT,APARTMENT,Wallonie,Liège,Liège,BONCELLES,3,4100,Route du Condroz 76,50.5622246,5.5470943,GOOD,2005.0,259000.0,2023.0,3.0,128.0,2.0,,,,,,True,5.0,,INSTALLED,1.0,1.0,1.0,True,,,1.0,2.0,,310.0,D,True,
10620913,APARTMENT,APARTMENT,Wallonie,Hainaut,Soignies,Soignies,2,7060,,,,,2023.0,154000.0,2852.0,1.0,54.0,1.0,2.0,,4.0,,,True,6.0,,INSTALLED,,1.0,1.0,False,,,,1.0,,,,True,
10620922,APARTMENT,APARTMENT,Brussels,Brussels,Brussels,Bruxelles,2,1020,Boulevard Emile Bockstael 268,50.8784712,4.3476487,GOOD,,235000.0,2611.0,2.0,90.0,4.0,4.0,True,2.0,,,True,15.0,,INSTALLED,2.0,2.0,1.0,False,False,,,,,625.0,G,True,
10620968,APARTMENT,APARTMENT,Brussels,Brussels,Brussels,Ixelles,2,1050,,,,GOOD,,529500.0,3043.0,2.0,174.0,1.0,5.0,True,2.0,,,True,,,HYPER_EQUIPPED,1.0,1.0,1.0,False,False,,,,,143.0,C,True,
10620947,APARTMENT,APARTMENT,Flanders,West Flanders,Veurne,Nieuwpoort,4,8620,Albert I laan 281,51.1457705,2.7103081,GOOD,2005.0,990000.0,7557.0,3.0,131.0,6.0,6.0,True,3.0,,,True,,,HYPER_EQUIPPED,1.0,0.0,,False,False,,,,,375.0,D,False,
10620972,APARTMENT,APARTMENT,Brussels,Brussels,Brussels,Bruxelles  1,1,1000,,50.8791885,4.3709276,,,510000.0,3168.0,4.0,161.0,4.0,,,4.0,,,,,,,1.0,1.0,2.0,False,,,,,,,,False,
10621003,APARTMENT,FLAT_STUDIO,Brussels,Brussels,Brussels,BRUXELLES,1,1000,Rue de la Roue 14,50.8418744,4.3461543,GOOD,2016.0,159000.0,4969.0,1.0,32.0,0.0,4.0,True,2.0,,,,,,INSTALLED,,1.0,1.0,False,False,False,,,,164.0,D,True,
10620971,APARTMENT,APARTMENT,Brussels,Brussels,Brussels,Bruxelles  1,1,1000,,50.8791885,4.3709276,,,410000.0,3203.0,3.0,128.0,4.0,,,4.0,,,,,,,1.0,1.0,2.0,False,,,,,,,,False,
10621023,APARTMENT,APARTMENT,Flanders,Flemish Brabant,Leuven,Leuven,1,3001,Leeuwerikenstraat 53,50.862212,4.700018,,1973.0,395000.0,3873.0,2.0,102.0,2.0,,True,4.0,,,True,8.0,,HYPER_EQUIPPED,1.0,0.0,1.0,False,False,True,,,,103.0,B,True,
10621021,APARTMENT,APARTMENT,Flanders,West Flanders,Veurne,De Panne,4,8660,"Dynastielaan 2,c401",51.0967204,2.5740081,GOOD,,415000.0,3807.0,3.0,109.0,4.0,,True,,,,True,,,INSTALLED,,1.0,1.0,False,False,,1.0,,,218.0,C,True,
10621005,APARTMENT,APARTMENT,Flanders,Antwerp,Antwerp,Borgerhout,4,2140,Delftstraat 36,51.2220132,4.441828,GOOD,1947.0,279000.0,3207.0,2.0,87.0,2.0,4.0,,2.0,,,,,,INSTALLED,1.0,0.0,1.0,True,,,,,,296.0,C,True,
10489947,APARTMENT,APARTMENT,Brussels,Brussels,Brussels,SINT-JANS-MOLENBEEK,2,1080,,,,GOOD,1968.0,225000.0,2368.0,2.0,95.0,6.0,6.0,True,2.0,,,True,9.0,,INSTALLED,1.0,0.0,1.0,True,,,,,,295.0,F,True,
10621039,APARTMENT,APARTMENT,Flanders,West Flanders,Brugge,Assebroek,4,8310,Edward de Denestraat 4,51.1994342,3.2334365,GOOD,1977.0,215000.0,2688.0,2.0,80.0,1.0,6.0,False,2.0,,,,,,,1.0,0.0,1.0,False,,False,,1.0,,232.0,C,False,
10621034,APARTMENT,GROUND_FLOOR,Flanders,West Flanders,Brugge,Sint-Michiels,3,8200,Parklaan 14,51.1840011,3.2227986,GOOD,1990.0,259000.0,3120.0,2.0,83.0,0.0,,False,,,,,,,,1.0,0.0,1.0,False,,False,,,,360.0,D,False,
10621032,APARTMENT,APARTMENT,Flanders,East Flanders,Gent,Gent,1,9000,Kortrijksesteenweg 881,51.0191267,3.6769402,GOOD,1970.0,395000.0,2651.0,3.0,149.0,2.0,,True,,,,True,,,,1.0,0.0,1.0,False,,False,,1.0,,173.0,B,True,
10621066,APARTMENT,APARTMENT,Flanders,West Flanders,Brugge,Knokke-Heist,3,8300,Strandstraat 15,51.3553389,3.3023824,GOOD,1970.0,1095000.0,10631.0,2.0,103.0,4.0,,True,2.0,,,,,,,2.0,0.0,2.0,True,,True,,,,195.0,B,False,
10621052,APARTMENT,APARTMENT,Flanders,Antwerp,Antwerp,Antwerpen,1,2000,Amerikalei 66-68,51.2079843,4.398755,AS_NEW,2017.0,449000.0,4317.0,2.0,104.0,0.0,6.0,True,2.0,,,True,6.0,,HYPER_EQUIPPED,1.0,0.0,1.0,False,,,,,,168.0,B,True,
10621085,APARTMENT,APARTMENT,Flanders,Antwerp,Antwerp,Antwerpen,2,2018,Maria-Henriëttalei 7,51.211572,4.4101455,GOOD,1937.0,375000.0,3571.0,2.0,105.0,7.0,8.0,True,2.0,True,150.0,,,,HYPER_EQUIPPED,1.0,0.0,1.0,False,False,False,,,,225.0,C,True,
10621146,HOUSE,HOUSE,Brussels,Brussels,Brussels,Schaerbeek,2,1030,Rue Dupont 43,50.8590108,4.3654171,JUST_RENOVATED,,395000.0,2194.0,3.0,180.0,,,,2.0,,,True,30.0,92.0,INSTALLED,,1.0,2.0,True,,,,,,379.0,G,True,
10621123,APARTMENT,APARTMENT,Flanders,Flemish Brabant,Halle-Vilvoorde,Overijse,2,3090,Brusselsesteenweg 133,50.7760319,4.530039,GOOD,2010.0,145000.0,4265.0,1.0,34.0,1.0,2.0,True,2.0,,,True,6.0,,,1.0,1.0,1.0,False,False,,,,,214.0,C,True,
10621147,HOUSE,HOUSE,Brussels,Brussels,Brussels,SAINT-JOSSE-TEN-NOODE,4,1210,Rue Dupont 43,50.8590108,4.3654171,JUST_RENOVATED,,395000.0,2194.0,3.0,180.0,,,,2.0,,,True,30.0,92.0,INSTALLED,,1.0,2.0,True,,,,,,379.0,G,True,
10621148,HOUSE,APARTMENT_BLOCK,Brussels,Brussels,Brussels,Schaerbeek,2,1030,Rue Dupont 43,50.8590108,4.3654171,JUST_RENOVATED,,395000.0,2194.0,3.0,180.0,,,,2.0,,,True,30.0,92.0,INSTALLED,,1.0,2.0,True,,,,,,379.0,G,True,
10621149,HOUSE,APARTMENT_BLOCK,Brussels,Brussels,Brussels,SAINT-JOSSE-TEN-NOODE,4,1210,Rue Dupont 43,50.8590108,4.3654171,JUST_RENOVATED,,395000.0,2194.0,3.0,180.0,,,,2.0,,,True,30.0,92.0,INSTALLED,,1.0,2.0,True,,,,,,379.0,G,True,
10621170,APARTMENT,APARTMENT,Flanders,Antwerp,Mechelen,Mechelen,3,2800,Mayken Verhulststraat 12,51.0152024,4.4742271,AS_NEW,2018.0,349000.0,3713.0,1.0,94.0,1.0,2.0,True,3.0,,,True,7.0,,INSTALLED,1.0,0.0,1.0,False,False,False,1.0,,,,,True,
10621174,APARTMENT,APARTMENT,Wallonie,Liège,Liège,VILLERS-L'ÉVÊQUE,4,4340,Chaussée Noël Ledouble 72,50.6931618,5.4386936,GOOD,2008.0,175000.0,3241.0,1.0,54.0,1.0,2.0,True,2.0,,,,,,INSTALLED,,1.0,1.0,True,,,,1.0,,114.0,B,True,
10621189,APARTMENT,GROUND_FLOOR,Flanders,Antwerp,Turnhout,Retie,4,2470,"Putstraat 1, 0002",51.2656396,5.0817936,AS_NEW,2019.0,249000.0,3507.0,2.0,71.0,0.0,2.0,,3.0,True,,True,20.0,,INSTALLED,1.0,0.0,1.0,True,,,,,,83.0,A,True,
10621171,APARTMENT,APARTMENT,Wallonie,Hainaut,Charleroi,Marcinelle,1,6001,Rue Vital Françoisse 115,50.4048562,4.4283203,,,100000.0,1250.0,2.0,80.0,15.0,,True,,True,20000.0,,,,INSTALLED,1.0,0.0,1.0,False,False,False,,2.0,,209.0,C,True,
10621188,APARTMENT,APARTMENT,Flanders,Antwerp,Turnhout,Turnhout,3,2300,Smalvoortstraat 41,51.3166704,4.955061,TO_BE_DONE_UP,,165000.0,2062.0,2.0,80.0,1.0,2.0,,2.0,,,True,5.0,,,1.0,0.0,,True,,,1.0,,,480.0,E,True,
10621205,APARTMENT,APARTMENT,Flanders,Antwerp,Turnhout,Turnhout,3,2300,Stationstraat 22,51.3225584,4.938574,GOOD,1967.0,339000.0,1123.0,3.0,302.0,1.0,,,2.0,,,,,,INSTALLED,2.0,0.0,2.0,True,,,,,,197.0,B,,
10621220,APARTMENT,APARTMENT,Flanders,Antwerp,Turnhout,Turnhout,3,2300,"Korte Vianenstraat 4, 19",51.31955,4.94368,GOOD,1991.0,259000.0,2252.0,2.0,115.0,0.0,,True,2.0,,,True,,,SEMI_EQUIPPED,1.0,0.0,1.0,True,,,1.0,,,337.0,D,,
10621212,APARTMENT,APARTMENT,Flanders,Antwerp,Turnhout,Turnhout,3,2300,Franz Joostenstraat 46,51.3154508,4.9388113,GOOD,1975.0,159000.0,2178.0,2.0,73.0,2.0,2.0,,3.0,,,,,,SEMI_EQUIPPED,1.0,0.0,1.0,True,,,,,,269.0,C,,
10621242,APARTMENT,APARTMENT,Wallonie,Luxembourg,Arlon,Arlon,3,6700,Via Sesmara 2C,49.6785392,5.8122352,GOOD,2006.0,319000.0,3358.0,2.0,95.0,0.0,4.0,True,,,,True,6.0,,INSTALLED,2.0,1.0,1.0,False,False,,10.0,8.0,,163.0,B,True,
10621230,APARTMENT,APARTMENT,Flanders,Antwerp,Turnhout,Turnhout,3,2300,Generaal Van der Meerschstraat 89,51.3190364,4.9623053,GOOD,,178000.0,2046.0,2.0,87.0,2.0,2.0,,3.0,True,,True,,,INSTALLED,1.0,0.0,1.0,True,,,1.0,,,161.0,B,,
10621248,HOUSE,APARTMENT_BLOCK,Wallonie,Hainaut,Charleroi,Manage,4,7170,Place De La Hestre 40,50.475092,4.237343,TO_BE_DONE_UP,,210000.0,,5.0,,,,False,2.0,,,,,0.0,USA_SEMI_EQUIPPED,2.0,0.0,2.0,False,False,False,,,,,,True,
10621252,APARTMENT,APARTMENT,Flanders,Antwerp,Antwerp,Borgerhout,4,2140,Joe Englishstraat 61,51.2097851,4.4471359,JUST_RENOVATED,1977.0,239000.0,2716.0,2.0,88.0,7.0,15.0,True,2.0,,,True,5.0,,INSTALLED,1.0,0.0,2.0,True,,,,,,152.0,B,,
10621264,APARTMENT,APARTMENT,Flanders,Antwerp,Turnhout,Balen,4,2490,Kerkstraat 60,51.1749212,5.1716048,GOOD,2004.0,267000.0,2495.0,2.0,107.0,2.0,2.0,True,2.0,,,,,,,1.0,0.0,1.0,True,,,1.0,,,288.0,C,True,
10621276,APARTMENT,GROUND_FLOOR,Flanders,Limburg,Hasselt,Leopoldsburg,4,3970,"Koningin Astridplein 3, 1",51.1186017,5.2628184,GOOD,,299000.0,1942.0,2.0,154.0,0.0,,,,,,,,,,1.0,0.0,1.0,True,,,2.0,,,190.0,B,,
10621289,APARTMENT,APARTMENT,Brussels,Brussels,Brussels,BERCHEM-SAINTE-AGATHE,2,1082,Openveldstraat 73,50.8664939,4.2986623,GOOD,1956.0,199500.0,3325.0,2.0,60.0,2.0,2.0,,,,,,,,,,1.0,1.0,True,,,1.0,,,620.0,G,True,
10621303,APARTMENT,APARTMENT,Flanders,Limburg,Hasselt,Leopoldsburg,4,3971,Vloosstraat 1,51.1102494,5.2313767,TO_RESTORE,,169000.0,2112.0,2.0,80.0,1.0,1.0,False,4.0,,,,,,,1.0,0.0,1.0,False,False,False,1.0,1.0,,,,False,
10621350,APARTMENT,APARTMENT,Flanders,Antwerp,Antwerp,Deurne,3,2100,Cogelsplein 18,51.219584,4.4548774,,,249000.0,2767.0,2.0,90.0,6.0,,True,,,,True,,,HYPER_EQUIPPED,,0.0,,False,,,1.0,,,198.0,B,,
10490279,HOUSE,HOUSE,Flanders,Flemish Brabant,Halle-Vilvoorde,Londerzeel,4,1840,Stuikberg 55,51.0307758,4.3035547,AS_NEW,1930.0,329000.0,3538.0,2.0,93.0,,,False,3.0,True,60.0,True,60.0,150.0,USA_HYPER_EQUIPPED,1.0,0.0,1.0,False,False,,1.0,1.0,,343.0,D,True,
10621319,APARTMENT,APARTMENT,Wallonie,Hainaut,Soignies,Enghien,4,7850,Rue d'Hérinnes 18,50.6940433,4.0391493,,,340000.0,1828.0,2.0,186.0,0.0,,,1.0,,,,,,,1.0,0.0,2.0,False,,,,,,188.0,C,True,
10621356,APARTMENT,APARTMENT,Brussels,Brussels,Brussels,Koekelberg,2,1081,Avenue de la Basilique 371,50.8657284,4.3128576,GOOD,1968.0,255000.0,2318.0,2.0,110.0,4.0,9.0,True,2.0,,,True,1.0,,INSTALLED,1.0,0.0,1.0,False,False,,1.0,,,186.0,D,True,
10359228,APARTMENT,APARTMENT,Flanders,West Flanders,Oostend,Oostende,3,8400,,51.2102445,2.9053652,AS_NEW,1987.0,195000.0,2191.0,2.0,89.0,1.0,,True,,,,True,,,,,0.0,,False,False,,,,,225.0,C,True,
10621358,APARTMENT,APARTMENT,Wallonie,Liège,Verviers,Heusy,3,4802,Avenue de Thiervaux 28,50.5787795,5.870292,GOOD,1976.0,179000.0,1925.0,2.0,93.0,2.0,2.0,True,3.0,,,True,7.0,,INSTALLED,1.0,0.0,1.0,False,False,,1.0,1.0,,354.0,E,True,
10621411,APARTMENT,APARTMENT,Brussels,Brussels,Brussels,Schaerbeek,2,1030,,,,TO_BE_DONE_UP,1933.0,330000.0,2750.0,2.0,120.0,2.0,8.0,,2.0,,,True,6.0,,INSTALLED,1.0,0.0,1.0,True,,,,,,241.0,E,True,
